[
	{
		"category": "BP",
		"streetview_lat": 51.397941,
		"lng": -0.98467,
		"id": 84269388,
		"lat": 51.39781,
		"streetview_zoom": 0,
		"key_SiteType": "31",
		"streetview_pitch": 0,
		"flag_MotorwaySite": false,
		"streetview_yaw": 117,
		"location": "SWALLOWFIELD S/STN - FS614",
		"streetview_lng": -0.985036,
		"location_id": "634"
	},
	{
		"category": "BP",
		"streetview_lat": null,
		"lng": -1.474587,
		"id": 84269389,
		"lat": 51.2141551,
		"streetview_zoom": 0,
		"key_SiteType": "21",
		"streetview_pitch": 5,
		"flag_MotorwaySite": false,
		"streetview_yaw": 0,
		"location": "MUNRO'S CORNER S/STN - FS631",
		"streetview_lng": null,
		"location_id": "3533"
	},
	{
		"category": "BP",
		"streetview_lat": 51.403588,
		"lng": -1.30625,
		"id": 84269393,
		"lat": 51.40389,
		"streetview_zoom": 0,
		"key_SiteType": "31",
		"streetview_pitch": 1,
		"flag_MotorwaySite": false,
		"streetview_yaw": 31,
		"location": "SWANBRIDGE SF CONNECT",
		"streetview_lng": -1.306376,
		"location_id": "3569"
	},
	{
		"category": "BP",
		"streetview_lat": 51.145471,
		"lng": -0.97982,
		"id": 84269400,
		"lat": 51.14534,
		"streetview_zoom": 0,
		"key_SiteType": "31",
		"streetview_pitch": 1,
		"flag_MotorwaySite": false,
		"streetview_yaw": 151,
		"location": "ALTON S/STN FS001",
		"streetview_lng": -0.979961,
		"location_id": "3588"
	},
	{
		"category": "BP",
		"streetview_lat": 50.805047,
		"lng": -1.087277,
		"id": 84269403,
		"lat": 50.804841,
		"streetview_zoom": 0,
		"key_SiteType": "21",
		"streetview_pitch": -1,
		"flag_MotorwaySite": false,
		"streetview_yaw": -137,
		"location": "ALL SAINTS SELF SERVE",
		"streetview_lng": -1.087279,
		"location_id": "3596"
	},
	{
		"category": "BP",
		"streetview_lat": 50.811279,
		"lng": -1.15462,
		"id": 84269406,
		"lat": 50.81117,
		"streetview_zoom": 0,
		"key_SiteType": "21",
		"streetview_pitch": -1,
		"flag_MotorwaySite": false,
		"streetview_yaw": -116,
		"location": "ANSON SERVICE STATION",
		"streetview_lng": -1.154431,
		"location_id": "3601"
	},
	{
		"category": "BP",
		"streetview_lat": null,
		"lng": -1.11777,
		"id": 84269422,
		"lat": 51.62242,
		"streetview_zoom": 0,
		"key_SiteType": "21",
		"streetview_pitch": 5,
		"flag_MotorwaySite": false,
		"streetview_yaw": 0,
		"location": "BENSON SF CONNECT",
		"streetview_lng": null,
		"location_id": "3654"
	},
	{
		"category": "BP",
		"streetview_lat": 51.104801,
		"lng": -2.99506,
		"id": 84269444,
		"lat": 51.10465,
		"streetview_zoom": 0,
		"key_SiteType": "11",
		"streetview_pitch": 4,
		"flag_MotorwaySite": true,
		"streetview_yaw": -146,
		"location": "BRIDGEWATER MWSA",
		"streetview_lng": -2.994979,
		"location_id": "3703"
	},
	{
		"category": "BP",
		"streetview_lat": 51.588764,
		"lng": -1.42192,
		"id": 84269446,
		"lat": 51.58862,
		"streetview_zoom": 0,
		"key_SiteType": "21",
		"streetview_pitch": 0,
		"flag_MotorwaySite": false,
		"streetview_yaw": 0,
		"location": "BROADWAY MOTORS (WANTAGE) LTD",
		"streetview_lng": -1.422033,
		"location_id": "3714"
	},
	{
		"category": "BP",
		"streetview_lat": null,
		"lng": -1.49697,
		"id": 84269452,
		"lat": 51.6755,
		"streetview_zoom": 0,
		"key_SiteType": "31",
		"streetview_pitch": 5,
		"flag_MotorwaySite": false,
		"streetview_yaw": 0,
		"location": "BUCKLAND SF CONNECT",
		"streetview_lng": null,
		"location_id": "3726"
	},
	{
		"category": "BP",
		"streetview_lat": 51.720454,
		"lng": -1.95358,
		"id": 84269459,
		"lat": 51.72036,
		"streetview_zoom": 0,
		"key_SiteType": "21",
		"streetview_pitch": 0,
		"flag_MotorwaySite": false,
		"streetview_yaw": 171,
		"location": "BURFORD ROAD SERVICE STATION",
		"streetview_lng": -1.953622,
		"location_id": "3736"
	},
	{
		"category": "BP",
		"streetview_lat": 51.798485,
		"lng": -1.48357,
		"id": 84269470,
		"lat": 51.79848,
		"streetview_zoom": 0,
		"key_SiteType": "21",
		"streetview_pitch": -2,
		"flag_MotorwaySite": false,
		"streetview_yaw": 101,
		"location": "CANNON POOL SERVICE STATION",
		"streetview_lng": -1.483794,
		"location_id": "3756"
	},
	{
		"category": "BP",
		"streetview_lat": 50.96195,
		"lng": -2.75168,
		"id": 84269474,
		"lat": 50.96182,
		"streetview_zoom": 0,
		"key_SiteType": "21",
		"streetview_pitch": 4,
		"flag_MotorwaySite": false,
		"streetview_yaw": 172,
		"location": "CARTGATE FS464",
		"streetview_lng": -2.751718,
		"location_id": "3764"
	},
	{
		"category": "BP",
		"streetview_lat": 51.76781,
		"lng": -1.23225,
		"id": 84269485,
		"lat": 51.767684,
		"streetview_zoom": 0,
		"key_SiteType": "21",
		"streetview_pitch": 2,
		"flag_MotorwaySite": false,
		"streetview_yaw": 0,
		"location": "CHERWELL S/STN - FS566",
		"streetview_lng": -1.232067,
		"location_id": "3792"
	},
	{
		"category": "BP",
		"streetview_lat": null,
		"lng": -1.31012,
		"id": 84269489,
		"lat": 51.44867,
		"streetview_zoom": 0,
		"key_SiteType": "11",
		"streetview_pitch": 5,
		"flag_MotorwaySite": true,
		"streetview_yaw": 0,
		"location": "CHIEVELEY MWSA",
		"streetview_lng": null,
		"location_id": "3797"
	},
	{
		"category": "BP",
		"streetview_lat": 50.923123,
		"lng": -1.5781098,
		"id": 84269510,
		"lat": 50.9231843,
		"streetview_zoom": 0,
		"key_SiteType": "31",
		"streetview_pitch": -2,
		"flag_MotorwaySite": false,
		"streetview_yaw": 0,
		"location": "Courtesy Filling Station",
		"streetview_lng": -1.578583,
		"location_id": "3845"
	},
	{
		"category": "BP",
		"streetview_lat": 51.085853,
		"lng": -1.77571,
		"id": 84269556,
		"lat": 51.08592,
		"streetview_zoom": 0,
		"key_SiteType": "21",
		"streetview_pitch": 0,
		"flag_MotorwaySite": false,
		"streetview_yaw": -34,
		"location": "FOUR ACRES SF CONNECT",
		"streetview_lng": -1.775487,
		"location_id": "3978"
	},
	{
		"category": "BP",
		"streetview_lat": null,
		"lng": -1.031351,
		"id": 84269579,
		"lat": 51.425745,
		"streetview_zoom": 0,
		"key_SiteType": "11",
		"streetview_pitch": 5,
		"flag_MotorwaySite": true,
		"streetview_yaw": 0,
		"location": "READING EAST CONNECT MWSA",
		"streetview_lng": null,
		"location_id": "4024"
	},
	{
		"category": "BP",
		"streetview_lat": null,
		"lng": -1.03346,
		"id": 84269580,
		"lat": 51.42253,
		"streetview_zoom": 0,
		"key_SiteType": "11",
		"streetview_pitch": 5,
		"flag_MotorwaySite": true,
		"streetview_yaw": 0,
		"location": "READING WEST CONNECT MWSA",
		"streetview_lng": null,
		"location_id": "4025"
	},
	{
		"category": "BP",
		"streetview_lat": 50.641947,
		"lng": -4.36532,
		"id": 84269584,
		"lat": 50.64201,
		"streetview_zoom": 0,
		"key_SiteType": "31",
		"streetview_pitch": 0,
		"flag_MotorwaySite": false,
		"streetview_yaw": 51,
		"location": "GREENAWAYS GARAGE",
		"streetview_lng": -4.365493,
		"location_id": "4031"
	},
	{
		"category": "BP",
		"streetview_lat": 51.251122,
		"lng": -1.08682,
		"id": 84269585,
		"lat": 51.25095,
		"streetview_zoom": 0,
		"key_SiteType": "21",
		"streetview_pitch": 3,
		"flag_MotorwaySite": false,
		"streetview_yaw": 0,
		"location": "GROVE ROAD SF CONNECT",
		"streetview_lng": -1.086993,
		"location_id": "4034"
	},
	{
		"category": "BP",
		"streetview_lat": 51.356366,
		"lng": -2.93378,
		"id": 84269629,
		"lat": 51.35654,
		"streetview_zoom": 0,
		"key_SiteType": "21",
		"streetview_pitch": 0,
		"flag_MotorwaySite": false,
		"streetview_yaw": -23,
		"location": "WORLE FS467",
		"streetview_lng": -2.933656,
		"location_id": "4133"
	},
	{
		"category": "BP",
		"streetview_lat": 50.72155,
		"lng": -1.975188,
		"id": 84269635,
		"lat": 50.721499,
		"streetview_zoom": 0,
		"key_SiteType": "21",
		"streetview_pitch": 3,
		"flag_MotorwaySite": false,
		"streetview_yaw": 90,
		"location": "LONGFLEET SERVICE STATION",
		"streetview_lng": -1.975437,
		"location_id": "4149"
	},
	{
		"category": "BP",
		"streetview_lat": 50.973324,
		"lng": -1.60972,
		"id": 84269650,
		"lat": 50.97317,
		"streetview_zoom": 0,
		"key_SiteType": "21",
		"streetview_pitch": 0,
		"flag_MotorwaySite": false,
		"streetview_yaw": -177,
		"location": "LANDFORD S/STN FS428",
		"streetview_lng": -1.609733,
		"location_id": "4174"
	},
	{
		"category": "BP",
		"streetview_lat": 51.166608,
		"lng": -2.18841,
		"id": 84269660,
		"lat": 51.16667,
		"streetview_zoom": 0,
		"key_SiteType": "21",
		"streetview_pitch": 2,
		"flag_MotorwaySite": false,
		"streetview_yaw": 62,
		"location": "LONGBRIDGE DEVERILL S/STN",
		"streetview_lng": -2.188662,
		"location_id": "4207"
	},
	{
		"category": "BP",
		"streetview_lat": 51.28187,
		"lng": -2.84691,
		"id": 84269664,
		"lat": 51.28172,
		"streetview_zoom": 0,
		"key_SiteType": "31",
		"streetview_pitch": -1,
		"flag_MotorwaySite": false,
		"streetview_yaw": 135,
		"location": "LUNNS FILLING STATION",
		"streetview_lng": -2.84715,
		"location_id": "4215"
	},
	{
		"category": "BP",
		"streetview_lat": 51.591537,
		"lng": -2.08895,
		"id": 84269670,
		"lat": 51.59153,
		"streetview_zoom": 0,
		"key_SiteType": "21",
		"streetview_pitch": 1,
		"flag_MotorwaySite": false,
		"streetview_yaw": 95,
		"location": "MALMESBURY S/STN FS466",
		"streetview_lng": -2.089201,
		"location_id": "4235"
	},
	{
		"category": "BP",
		"streetview_lat": null,
		"lng": -3.00767,
		"id": 84269671,
		"lat": 51.6164,
		"streetview_zoom": 0,
		"key_SiteType": "31",
		"streetview_pitch": 5,
		"flag_MotorwaySite": false,
		"streetview_yaw": 0,
		"location": "MALPAS SF CONNECT",
		"streetview_lng": null,
		"location_id": "4236"
	},
	{
		"category": "BP",
		"streetview_lat": 51.61923,
		"lng": -1.29983,
		"id": 84269687,
		"lat": 51.61882,
		"streetview_zoom": 0,
		"key_SiteType": "31",
		"streetview_pitch": -7,
		"flag_MotorwaySite": false,
		"streetview_yaw": 0,
		"location": "MILTON HEIGHTS SF CONNECT",
		"streetview_lng": -1.299893,
		"location_id": "4276"
	},
	{
		"category": "BP",
		"streetview_lat": 51.385547,
		"lng": -2.14252,
		"id": 84269710,
		"lat": 51.3856,
		"streetview_zoom": 0,
		"key_SiteType": "21",
		"streetview_pitch": 0,
		"flag_MotorwaySite": false,
		"streetview_yaw": 96,
		"location": "BEANACRE ROAD - FS564",
		"streetview_lng": -2.142858,
		"location_id": "4337"
	},
	{
		"category": "BP",
		"streetview_lat": null,
		"lng": -2.25129,
		"id": 84269719,
		"lat": 51.58957,
		"streetview_zoom": 0,
		"key_SiteType": "21",
		"streetview_pitch": 5,
		"flag_MotorwaySite": false,
		"streetview_yaw": 0,
		"location": "OLDBURY HILL GARAGE",
		"streetview_lng": null,
		"location_id": "4355"
	},
	{
		"category": "BP",
		"streetview_lat": null,
		"lng": -1.09981,
		"id": 84269727,
		"lat": 51.73863,
		"streetview_zoom": 0,
		"key_SiteType": "31",
		"streetview_pitch": 5,
		"flag_MotorwaySite": false,
		"streetview_yaw": 0,
		"location": "OXFORD MWSA",
		"streetview_lng": null,
		"location_id": "4370"
	},
	{
		"category": "BP",
		"streetview_lat": null,
		"lng": -0.95151,
		"id": 84269738,
		"lat": 51.00875,
		"streetview_zoom": 0,
		"key_SiteType": "31",
		"streetview_pitch": 5,
		"flag_MotorwaySite": false,
		"streetview_yaw": 0,
		"location": "PETERSFIELD SF CONNECT",
		"streetview_lng": null,
		"location_id": "4394"
	},
	{
		"category": "BP",
		"streetview_lat": 51.193087,
		"lng": -1.23222,
		"id": 84269744,
		"lat": 51.19316,
		"streetview_zoom": 0,
		"key_SiteType": "31",
		"streetview_pitch": -1,
		"flag_MotorwaySite": false,
		"streetview_yaw": -52,
		"location": "POPHAM SF CONNECT",
		"streetview_lng": -1.232119,
		"location_id": "4411"
	},
	{
		"category": "BP",
		"streetview_lat": null,
		"lng": -0.9737,
		"id": 84269769,
		"lat": 51.40519,
		"streetview_zoom": 0,
		"key_SiteType": "21",
		"streetview_pitch": 5,
		"flag_MotorwaySite": false,
		"streetview_yaw": 0,
		"location": "THREE MILE CROSS S/STN",
		"streetview_lng": null,
		"location_id": "4477"
	},
	{
		"category": "BP",
		"streetview_lat": null,
		"lng": -4.08364,
		"id": 84269774,
		"lat": 51.06293,
		"streetview_zoom": 0,
		"key_SiteType": "31",
		"streetview_pitch": 5,
		"flag_MotorwaySite": false,
		"streetview_yaw": 0,
		"location": "ROUNDSWELL SERVICES",
		"streetview_lng": null,
		"location_id": "4487"
	},
	{
		"category": "BP",
		"streetview_lat": 51.604092,
		"lng": -2.620967,
		"id": 84269790,
		"lat": 51.603559,
		"streetview_zoom": 0,
		"key_SiteType": "11",
		"streetview_pitch": -3,
		"flag_MotorwaySite": true,
		"streetview_yaw": 0,
		"location": "SEVERN VIEW MWSA",
		"streetview_lng": -2.621333,
		"location_id": "4519"
	},
	{
		"category": "BP",
		"streetview_lat": 51.431025,
		"lng": -2.47957,
		"id": 84269803,
		"lat": 51.43089,
		"streetview_zoom": 0,
		"key_SiteType": "21",
		"streetview_pitch": 0,
		"flag_MotorwaySite": false,
		"streetview_yaw": -172,
		"location": "RONTEC BRISTOL",
		"streetview_lng": -2.479602,
		"location_id": "4543"
	},
	{
		"category": "BP",
		"streetview_lat": 51.464748,
		"lng": -0.9783,
		"id": 84269824,
		"lat": 51.4646,
		"streetview_zoom": 0,
		"key_SiteType": "21",
		"streetview_pitch": 0,
		"flag_MotorwaySite": false,
		"streetview_yaw": 150,
		"location": "RONTEC READING",
		"streetview_lng": -0.978505,
		"location_id": "4565"
	},
	{
		"category": "BP",
		"streetview_lat": 51.739022,
		"lng": -2.20858,
		"id": 84269829,
		"lat": 51.73894,
		"streetview_zoom": 0,
		"key_SiteType": "21",
		"streetview_pitch": 1,
		"flag_MotorwaySite": false,
		"streetview_yaw": -118,
		"location": "RONTEC STROUD",
		"streetview_lng": -2.208431,
		"location_id": "4572"
	},
	{
		"category": "BP",
		"streetview_lat": 51.053775,
		"lng": -1.32079,
		"id": 84269850,
		"lat": 51.05377,
		"streetview_zoom": 0,
		"key_SiteType": "21",
		"streetview_pitch": -5,
		"flag_MotorwaySite": false,
		"streetview_yaw": 95,
		"location": "ST CROSS FILLING STATION",
		"streetview_lng": -1.321005,
		"location_id": "4621"
	},
	{
		"category": "BP",
		"streetview_lat": null,
		"lng": -2.00866,
		"id": 84269857,
		"lat": 50.62105,
		"streetview_zoom": 0,
		"key_SiteType": "21",
		"streetview_pitch": 5,
		"flag_MotorwaySite": false,
		"streetview_yaw": 0,
		"location": "ST MICHAELS GARAGE",
		"streetview_lng": null,
		"location_id": "4632"
	},
	{
		"category": "BP",
		"streetview_lat": 51.68151,
		"lng": -1.13091,
		"id": 84269862,
		"lat": 51.68149,
		"streetview_zoom": 0,
		"key_SiteType": "21",
		"streetview_pitch": -1,
		"flag_MotorwaySite": false,
		"streetview_yaw": 95,
		"location": "STADHAMPTON SF CONNECT",
		"streetview_lng": -1.131103,
		"location_id": "4654"
	},
	{
		"category": "BP",
		"streetview_lat": 51.677406,
		"lng": -3.99473,
		"id": 84269866,
		"lat": 51.6777,
		"streetview_zoom": 0,
		"key_SiteType": "11",
		"streetview_pitch": 3,
		"flag_MotorwaySite": true,
		"streetview_yaw": -1,
		"location": "SWANSEA SERVICES MWSA",
		"streetview_lng": -3.994703,
		"location_id": "4672"
	},
	{
		"category": "BP",
		"streetview_lat": 50.805031,
		"lng": -1.98795,
		"id": 84269880,
		"lat": 50.80494,
		"streetview_zoom": 0,
		"key_SiteType": "21",
		"streetview_pitch": 3,
		"flag_MotorwaySite": false,
		"streetview_yaw": 132,
		"location": "WALFORD BRIDGE SERVICE STATION",
		"streetview_lng": -1.988161,
		"location_id": "4709"
	},
	{
		"category": "BP",
		"streetview_lat": null,
		"lng": -0.98414,
		"id": 84269882,
		"lat": 51.45166,
		"streetview_zoom": 0,
		"key_SiteType": "31",
		"streetview_pitch": 5,
		"flag_MotorwaySite": false,
		"streetview_yaw": 0,
		"location": "TILEHURST SF CONNECT",
		"streetview_lng": null,
		"location_id": "4711"
	},
	{
		"category": "BP",
		"streetview_lat": 51.316935,
		"lng": -2.19475,
		"id": 84269898,
		"lat": 51.31703,
		"streetview_zoom": 0,
		"key_SiteType": "31",
		"streetview_pitch": 4,
		"flag_MotorwaySite": false,
		"streetview_yaw": 50,
		"location": "TROWBRIDGE LODGE SERVICES",
		"streetview_lng": -2.194938,
		"location_id": "4745"
	},
	{
		"category": "BP",
		"streetview_lat": 51.673295,
		"lng": -1.2804,
		"id": 84269908,
		"lat": 51.67332,
		"streetview_zoom": 0,
		"key_SiteType": "21",
		"streetview_pitch": -4,
		"flag_MotorwaySite": false,
		"streetview_yaw": 83,
		"location": "VINEYARD SERVICE STATION",
		"streetview_lng": -1.280661,
		"location_id": "4767"
	},
	{
		"category": "BP",
		"streetview_lat": 50.75395,
		"lng": -1.93173,
		"id": 84269914,
		"lat": 50.75393,
		"streetview_zoom": 0,
		"key_SiteType": "31",
		"streetview_pitch": -1,
		"flag_MotorwaySite": false,
		"streetview_yaw": 0,
		"location": "WALLISDOWN S/STN - FS658",
		"streetview_lng": -1.932126,
		"location_id": "4774"
	},
	{
		"category": "BP",
		"streetview_lat": null,
		"lng": -3.56831,
		"id": 84269919,
		"lat": 51.4955,
		"streetview_zoom": 0,
		"key_SiteType": "31",
		"streetview_pitch": 5,
		"flag_MotorwaySite": false,
		"streetview_yaw": 0,
		"location": "WATERTON FILLING STATION",
		"streetview_lng": null,
		"location_id": "4781"
	},
	{
		"category": "BP",
		"streetview_lat": 50.738466,
		"lng": -3.95687,
		"id": 84269934,
		"lat": 50.73867,
		"streetview_zoom": 0,
		"key_SiteType": "31",
		"streetview_pitch": -1,
		"flag_MotorwaySite": false,
		"streetview_yaw": 33,
		"location": "WHITEHOUSE SERVICES",
		"streetview_lng": -3.957015,
		"location_id": "4838"
	},
	{
		"category": "BP",
		"streetview_lat": 50.926331,
		"lng": -2.66759,
		"id": 84269937,
		"lat": 50.92646,
		"streetview_zoom": 0,
		"key_SiteType": "21",
		"streetview_pitch": 1,
		"flag_MotorwaySite": false,
		"streetview_yaw": -24,
		"location": "WEST YEOVIL SF CONNECT",
		"streetview_lng": -2.667538,
		"location_id": "4845"
	},
	{
		"category": "BP",
		"streetview_lat": 51.788309,
		"lng": -1.28216,
		"id": 84269944,
		"lat": 51.78869,
		"streetview_zoom": 0,
		"key_SiteType": "31",
		"streetview_pitch": 0,
		"flag_MotorwaySite": false,
		"streetview_yaw": 9,
		"location": "WOODSTOCK SF CONNECT",
		"streetview_lng": -1.282289,
		"location_id": "4872"
	},
	{
		"category": "BP",
		"streetview_lat": 51.701273,
		"lng": -2.90786,
		"id": 84269945,
		"lat": 51.70123,
		"streetview_zoom": 0,
		"key_SiteType": "21",
		"streetview_pitch": 2,
		"flag_MotorwaySite": false,
		"streetview_yaw": -77,
		"location": "WOODSIDE GARAGE",
		"streetview_lng": -2.907621,
		"location_id": "4873"
	},
	{
		"category": "BP",
		"streetview_lat": 50.871233,
		"lng": -1.26544,
		"id": 84269955,
		"lat": 50.87114,
		"streetview_zoom": 0,
		"key_SiteType": "21",
		"streetview_pitch": 1,
		"flag_MotorwaySite": false,
		"streetview_yaw": -117,
		"location": "PARK GATE SF CONNECT",
		"streetview_lng": -1.265215,
		"location_id": "9346"
	},
	{
		"category": "BP",
		"streetview_lat": 50.953357,
		"lng": -4.14049,
		"id": 84269964,
		"lat": 50.95341,
		"streetview_zoom": 0,
		"key_SiteType": "21",
		"streetview_pitch": 1,
		"flag_MotorwaySite": false,
		"streetview_yaw": 60,
		"location": "GREAT TORRINGTON SF CONNECT",
		"streetview_lng": -4.14072,
		"location_id": "9685"
	},
	{
		"category": "BP",
		"streetview_lat": 50.611992,
		"lng": -4.68679,
		"id": 84269965,
		"lat": 50.61194,
		"streetview_zoom": 0,
		"key_SiteType": "21",
		"streetview_pitch": -1,
		"flag_MotorwaySite": false,
		"streetview_yaw": 122,
		"location": "CAMELOT GARAGE",
		"streetview_lng": -4.687001,
		"location_id": "9688"
	},
	{
		"category": "BP",
		"streetview_lat": 50.901506,
		"lng": -1.33199,
		"id": 84269968,
		"lat": 50.90131,
		"streetview_zoom": 0,
		"key_SiteType": "31",
		"streetview_pitch": 0,
		"flag_MotorwaySite": false,
		"streetview_yaw": -135,
		"location": "BP SHOLING SERVICE STATION",
		"streetview_lng": -1.331772,
		"location_id": "9732"
	},
	{
		"category": "BP",
		"streetview_lat": 51.763399,
		"lng": -1.582,
		"id": 84269996,
		"lat": 51.76352,
		"streetview_zoom": 0,
		"key_SiteType": "21",
		"streetview_pitch": -1,
		"flag_MotorwaySite": false,
		"streetview_yaw": -30,
		"location": "BRIZE NORTON SERVICE STATION",
		"streetview_lng": -1.581823,
		"location_id": "12402"
	},
	{
		"category": "BP",
		"streetview_lat": 50.719011,
		"lng": -2.44236,
		"id": 84269998,
		"lat": 50.71905,
		"streetview_zoom": 0,
		"key_SiteType": "21",
		"streetview_pitch": 7,
		"flag_MotorwaySite": false,
		"streetview_yaw": -77,
		"location": "WESSEX RETAIL LIMITED",
		"streetview_lng": -2.442177,
		"location_id": "12450"
	},
	{
		"category": "BP",
		"streetview_lat": 51.592027,
		"lng": -1.77422,
		"id": 84270008,
		"lat": 51.59208,
		"streetview_zoom": 0,
		"key_SiteType": "21",
		"streetview_pitch": -3,
		"flag_MotorwaySite": false,
		"streetview_yaw": 0,
		"location": "PENHILL S/STN FS029",
		"streetview_lng": -1.774545,
		"location_id": "13510"
	},
	{
		"category": "BP",
		"streetview_lat": 50.848348,
		"lng": -1.1381,
		"id": 84270020,
		"lat": 50.84824,
		"streetview_zoom": 0,
		"key_SiteType": "31",
		"streetview_pitch": -1,
		"flag_MotorwaySite": false,
		"streetview_yaw": 0,
		"location": "PORTCHESTER SF CONNECT",
		"streetview_lng": -1.138311,
		"location_id": "13622"
	},
	{
		"category": "BP",
		"streetview_lat": 51.188467,
		"lng": -1.41193,
		"id": 84270033,
		"lat": 51.1887,
		"streetview_zoom": 0,
		"key_SiteType": "31",
		"streetview_pitch": -1,
		"flag_MotorwaySite": false,
		"streetview_yaw": 98,
		"location": "THE BUCK SF CONNECT",
		"streetview_lng": -1.412202,
		"location_id": "13705"
	},
	{
		"category": "BP",
		"streetview_lat": 50.949636,
		"lng": -2.527009,
		"id": 84270038,
		"lat": 50.949467,
		"streetview_zoom": 0,
		"key_SiteType": "21",
		"streetview_pitch": -1,
		"flag_MotorwaySite": false,
		"streetview_yaw": -174,
		"location": "SHERBORNE PS1002",
		"streetview_lng": -2.52706,
		"location_id": "13721"
	},
	{
		"category": "BP",
		"streetview_lat": 51.573295,
		"lng": -1.75897,
		"id": 84270044,
		"lat": 51.57316,
		"streetview_zoom": 0,
		"key_SiteType": "21",
		"streetview_pitch": 5,
		"flag_MotorwaySite": false,
		"streetview_yaw": 0,
		"location": "BRIDGE END ROAD SERVICE STN",
		"streetview_lng": -1.758938,
		"location_id": "14368"
	},
	{
		"category": "BP",
		"streetview_lat": null,
		"lng": -2.162815,
		"id": 84270046,
		"lat": 51.509263,
		"streetview_zoom": 0,
		"key_SiteType": "11",
		"streetview_pitch": 5,
		"flag_MotorwaySite": true,
		"streetview_yaw": 0,
		"location": "LEIGH DELAMERE WEST MWSA",
		"streetview_lng": null,
		"location_id": "14512"
	},
	{
		"category": "BP",
		"streetview_lat": 51.509061,
		"lng": -2.155684,
		"id": 84270047,
		"lat": 51.511285,
		"streetview_zoom": 0,
		"key_SiteType": "11",
		"streetview_pitch": 0,
		"flag_MotorwaySite": true,
		"streetview_yaw": 26,
		"location": "LEIGH DELAMERE EAST MWSA",
		"streetview_lng": -2.163002,
		"location_id": "14513"
	},
	{
		"category": "BP",
		"streetview_lat": 50.715072,
		"lng": -3.46427,
		"id": 84270048,
		"lat": 50.71494,
		"streetview_zoom": 0,
		"key_SiteType": "11",
		"streetview_pitch": 0,
		"flag_MotorwaySite": true,
		"streetview_yaw": 0,
		"location": "EXETER MWSA",
		"streetview_lng": -3.464437,
		"location_id": "14515"
	},
	{
		"category": "BP",
		"streetview_lat": 51.218053,
		"lng": -2.20004,
		"id": 84270063,
		"lat": 51.21806,
		"streetview_zoom": 0,
		"key_SiteType": "11",
		"streetview_pitch": 0,
		"flag_MotorwaySite": true,
		"streetview_yaw": -165,
		"location": "MOTO WARMINSTER MWSA",
		"streetview_lng": -2.200018,
		"location_id": "14691"
	},
	{
		"category": "BP",
		"streetview_lat": null,
		"lng": -1.84293,
		"id": 84270066,
		"lat": 51.54731,
		"streetview_zoom": 0,
		"key_SiteType": "21",
		"streetview_pitch": 5,
		"flag_MotorwaySite": false,
		"streetview_yaw": 0,
		"location": "BLAGROVE SERVICE STATION",
		"streetview_lng": null,
		"location_id": "14717"
	},
	{
		"category": "BP",
		"streetview_lat": null,
		"lng": -0.99569,
		"id": 84270073,
		"lat": 51.57586,
		"streetview_zoom": 0,
		"key_SiteType": "21",
		"streetview_pitch": 5,
		"flag_MotorwaySite": false,
		"streetview_yaw": 0,
		"location": "NETTLEBED S/STN - FS545",
		"streetview_lng": null,
		"location_id": "17313"
	},
	{
		"category": "BP",
		"streetview_lat": null,
		"lng": -1.00026,
		"id": 84270092,
		"lat": 50.8641,
		"streetview_zoom": 0,
		"key_SiteType": "21",
		"streetview_pitch": 5,
		"flag_MotorwaySite": false,
		"streetview_yaw": 0,
		"location": "PARK LANE SERVICE STATION",
		"streetview_lng": null,
		"location_id": "17868"
	},
	{
		"category": "BP",
		"streetview_lat": null,
		"lng": -1.21814,
		"id": 84270457,
		"lat": 51.73671,
		"streetview_zoom": 0,
		"key_SiteType": "21",
		"streetview_pitch": 5,
		"flag_MotorwaySite": false,
		"streetview_yaw": 0,
		"location": "COWLEY S/STN - FS503",
		"streetview_lng": null,
		"location_id": "18971"
	},
	{
		"category": "BP",
		"streetview_lat": null,
		"lng": -2.152522,
		"id": 84270473,
		"lat": 50.77515,
		"streetview_zoom": 0,
		"key_SiteType": "31",
		"streetview_pitch": 5,
		"flag_MotorwaySite": false,
		"streetview_yaw": 0,
		"location": "REDPOST S/STN",
		"streetview_lng": null,
		"location_id": "28046"
	},
	{
		"category": "BP",
		"streetview_lat": null,
		"lng": -1.3787533,
		"id": 84270475,
		"lat": 50.9181853,
		"streetview_zoom": 0,
		"key_SiteType": "21",
		"streetview_pitch": 5,
		"flag_MotorwaySite": false,
		"streetview_yaw": 0,
		"location": "MANOR SERVICE STATION",
		"streetview_lng": null,
		"location_id": "28054"
	},
	{
		"category": "BP",
		"streetview_lat": null,
		"lng": -1.3634,
		"id": 84270476,
		"lat": 50.8955,
		"streetview_zoom": 0,
		"key_SiteType": "21",
		"streetview_pitch": 5,
		"flag_MotorwaySite": false,
		"streetview_yaw": 0,
		"location": "WOOLSTON SERVICE STATION",
		"streetview_lng": null,
		"location_id": "28055"
	},
	{
		"category": "BP",
		"streetview_lat": null,
		"lng": -1.91315,
		"id": 84270479,
		"lat": 51.08202,
		"streetview_zoom": 0,
		"key_SiteType": "31",
		"streetview_pitch": 5,
		"flag_MotorwaySite": false,
		"streetview_yaw": 0,
		"location": "TINKERBELL S/STN",
		"streetview_lng": null,
		"location_id": "28098"
	},
	{
		"category": "BP",
		"streetview_lat": null,
		"lng": -1.1717,
		"id": 84270489,
		"lat": 51.39704,
		"streetview_zoom": 0,
		"key_SiteType": "21",
		"streetview_pitch": 5,
		"flag_MotorwaySite": false,
		"streetview_yaw": 0,
		"location": "RONTEC THATCHAM SSTN",
		"streetview_lng": null,
		"location_id": "28386"
	},
	{
		"category": "BP",
		"streetview_lat": 51.440947,
		"lng": -1.04992,
		"id": 84270495,
		"lat": 51.44106,
		"streetview_zoom": 0,
		"key_SiteType": "21",
		"streetview_pitch": 8,
		"flag_MotorwaySite": false,
		"streetview_yaw": -13,
		"location": "CALCOT SERVICE STATION",
		"streetview_lng": -1.049873,
		"location_id": "28400"
	},
	{
		"category": "BP",
		"streetview_lat": null,
		"lng": -0.97027,
		"id": 84270508,
		"lat": 51.74307,
		"streetview_zoom": 0,
		"key_SiteType": "21",
		"streetview_pitch": 5,
		"flag_MotorwaySite": false,
		"streetview_yaw": 0,
		"location": "THAME BP SF CONNECT",
		"streetview_lng": null,
		"location_id": "28460"
	},
	{
		"category": "BP",
		"streetview_lat": null,
		"lng": -1.30617,
		"id": 84270511,
		"lat": 51.809417,
		"streetview_zoom": 0,
		"key_SiteType": "21",
		"streetview_pitch": 5,
		"flag_MotorwaySite": false,
		"streetview_yaw": 0,
		"location": "FRASER'S BUDGENS OF YARNTON",
		"streetview_lng": null,
		"location_id": "28463"
	},
	{
		"category": "BP",
		"streetview_lat": null,
		"lng": -1.79286,
		"id": 84270513,
		"lat": 51.05681,
		"streetview_zoom": 0,
		"key_SiteType": "31",
		"streetview_pitch": 5,
		"flag_MotorwaySite": false,
		"streetview_yaw": 0,
		"location": "SALISBURY SF CONNECT",
		"streetview_lng": null,
		"location_id": "28470"
	},
	{
		"category": "BP",
		"streetview_lat": null,
		"lng": -1.83879,
		"id": 84270514,
		"lat": 50.82889,
		"streetview_zoom": 0,
		"key_SiteType": "31",
		"streetview_pitch": 5,
		"flag_MotorwaySite": false,
		"streetview_yaw": 0,
		"location": "ST LEONARDS SF CONNECT",
		"streetview_lng": null,
		"location_id": "28471"
	},
	{
		"category": "BP",
		"streetview_lat": null,
		"lng": -2.469783,
		"id": 84270516,
		"lat": 50.637504,
		"streetview_zoom": 0,
		"key_SiteType": "31",
		"streetview_pitch": 5,
		"flag_MotorwaySite": false,
		"streetview_yaw": 0,
		"location": "WEYMOUTH SF CONNECT",
		"streetview_lng": null,
		"location_id": "28478"
	},
	{
		"category": "BP",
		"streetview_lat": null,
		"lng": -1.255,
		"id": 84270517,
		"lat": 51.12127,
		"streetview_zoom": 0,
		"key_SiteType": "11",
		"streetview_pitch": 5,
		"flag_MotorwaySite": true,
		"streetview_yaw": 0,
		"location": "WINCHESTER NORTH CONNECT MWSA",
		"streetview_lng": null,
		"location_id": "28480"
	},
	{
		"category": "BP",
		"streetview_lat": null,
		"lng": -1.25386,
		"id": 84270518,
		"lat": 51.11645,
		"streetview_zoom": 0,
		"key_SiteType": "11",
		"streetview_pitch": 5,
		"flag_MotorwaySite": true,
		"streetview_yaw": 0,
		"location": "WINCHESTER SOUTH CONNECT MWSA",
		"streetview_lng": null,
		"location_id": "28481"
	},
	{
		"category": "BP",
		"streetview_lat": null,
		"lng": -3.15095,
		"id": 84270533,
		"lat": 50.79655,
		"streetview_zoom": 0,
		"key_SiteType": "31",
		"streetview_pitch": 5,
		"flag_MotorwaySite": false,
		"streetview_yaw": 0,
		"location": "WINDMILL GARAGE",
		"streetview_lng": null,
		"location_id": "28547"
	},
	{
		"category": "BP",
		"streetview_lat": null,
		"lng": -2.426884,
		"id": 84274945,
		"lat": 51.656683,
		"streetview_zoom": 0,
		"key_SiteType": "11",
		"streetview_pitch": 0,
		"flag_MotorwaySite": true,
		"streetview_yaw": 0,
		"location": "MICHAELWOOD SOUTH CONNECT MWSA",
		"streetview_lng": null,
		"location_id": "1206826094"
	},
	{
		"category": "BP",
		"streetview_lat": null,
		"lng": -2.430957,
		"id": 84274946,
		"lat": 51.657111,
		"streetview_zoom": 0,
		"key_SiteType": "11",
		"streetview_pitch": 0,
		"flag_MotorwaySite": true,
		"streetview_yaw": 0,
		"location": "MICHAELWOOD NORTH SFC MWSA",
		"streetview_lng": null,
		"location_id": "925228951"
	},
	{
		"category": "BP",
		"streetview_lat": null,
		"lng": -1.00244,
		"id": 84275152,
		"lat": 51.32753,
		"streetview_zoom": 0,
		"key_SiteType": "21",
		"streetview_pitch": 5,
		"flag_MotorwaySite": false,
		"streetview_yaw": 0,
		"location": "TURGIS GREEN SERVICE STATION",
		"streetview_lng": null,
		"location_id": "587130526"
	},
	{
		"category": "BP",
		"streetview_lat": null,
		"lng": -2.63479,
		"id": 84275168,
		"lat": 51.21344,
		"streetview_zoom": 0,
		"key_SiteType": "21",
		"streetview_pitch": 5,
		"flag_MotorwaySite": false,
		"streetview_yaw": 0,
		"location": "WELLS SERVICE STATION PS1001",
		"streetview_lng": null,
		"location_id": "2091035265"
	},
	{
		"category": "BP",
		"streetview_lat": null,
		"lng": -1.07542,
		"id": 84275414,
		"lat": 51.03109,
		"streetview_zoom": 0,
		"key_SiteType": "21",
		"streetview_pitch": 5,
		"flag_MotorwaySite": false,
		"streetview_yaw": 0,
		"location": "MEON HUT SERVICE STATION",
		"streetview_lng": null,
		"location_id": "67083335"
	},
	{
		"category": "BP",
		"streetview_lat": null,
		"lng": -1.19828,
		"id": 84275415,
		"lat": 50.80762,
		"streetview_zoom": 0,
		"key_SiteType": "21",
		"streetview_pitch": 5,
		"flag_MotorwaySite": false,
		"streetview_yaw": 0,
		"location": "LEE ON SOLENT SERVICE STATION",
		"streetview_lng": null,
		"location_id": "1640287857"
	},
	{
		"category": "BP",
		"streetview_lat": null,
		"lng": -1.04061,
		"id": 84275416,
		"lat": 50.88659,
		"streetview_zoom": 0,
		"key_SiteType": "21",
		"streetview_pitch": 5,
		"flag_MotorwaySite": false,
		"streetview_yaw": 0,
		"location": "WATERLOOVILLE SERVICE STATION",
		"streetview_lng": null,
		"location_id": "269693632"
	},
	{
		"category": "BP",
		"streetview_lat": null,
		"lng": -1.26015,
		"id": 84275417,
		"lat": 50.91533,
		"streetview_zoom": 0,
		"key_SiteType": "21",
		"streetview_pitch": 5,
		"flag_MotorwaySite": false,
		"streetview_yaw": 0,
		"location": "BOTLEY SERVICE STATION",
		"streetview_lng": null,
		"location_id": "641023914"
	},
	{
		"category": "BP",
		"streetview_lat": null,
		"lng": -1.75306,
		"id": 84275685,
		"lat": 50.73737,
		"streetview_zoom": 0,
		"key_SiteType": "21",
		"streetview_pitch": 5,
		"flag_MotorwaySite": false,
		"streetview_yaw": 0,
		"location": "CHRISTCHURCH SF CONNECT",
		"streetview_lng": null,
		"location_id": "135343462"
	},
	{
		"category": "BP",
		"streetview_lat": null,
		"lng": -1.04423,
		"id": 84275686,
		"lat": 51.11132,
		"streetview_zoom": 0,
		"key_SiteType": "21",
		"streetview_pitch": 5,
		"flag_MotorwaySite": false,
		"streetview_yaw": 0,
		"location": "FOUR MARKS SF CONNECT",
		"streetview_lng": null,
		"location_id": "103910709"
	},
	{
		"category": "BP",
		"streetview_lat": null,
		"lng": -1.36629,
		"id": 84275690,
		"lat": 51.78811,
		"streetview_zoom": 0,
		"key_SiteType": "31",
		"streetview_pitch": 5,
		"flag_MotorwaySite": false,
		"streetview_yaw": 0,
		"location": "EYNSHAM S/STN - FS560",
		"streetview_lng": null,
		"location_id": "1223577527"
	},
	{
		"category": "BP",
		"streetview_lat": null,
		"lng": -1.42469,
		"id": 84275744,
		"lat": 50.91318,
		"streetview_zoom": 0,
		"key_SiteType": "21",
		"streetview_pitch": 5,
		"flag_MotorwaySite": false,
		"streetview_yaw": 0,
		"location": "ARUBA SOUTHAMPTON SERVICE STAT",
		"streetview_lng": null,
		"location_id": "281147460"
	},
	{
		"category": "BP",
		"streetview_lat": null,
		"lng": -2.57437,
		"id": 84276216,
		"lat": 51.70608,
		"streetview_zoom": 0,
		"key_SiteType": "21",
		"streetview_pitch": 5,
		"flag_MotorwaySite": false,
		"streetview_yaw": 0,
		"location": "ALVINGTON SERVICE STATION",
		"streetview_lng": null,
		"location_id": "823177885"
	},
	{
		"category": "BP",
		"streetview_lat": null,
		"lng": -1.72073,
		"id": 84276236,
		"lat": 51.41491,
		"streetview_zoom": 0,
		"key_SiteType": "21",
		"streetview_pitch": 5,
		"flag_MotorwaySite": false,
		"streetview_yaw": 0,
		"location": "BUDGENS OF MARLBOROUGH",
		"streetview_lng": null,
		"location_id": "1075002626"
	},
	{
		"category": "BP",
		"streetview_lat": null,
		"lng": -1.44196,
		"id": 84276402,
		"lat": 50.98005,
		"streetview_zoom": 0,
		"key_SiteType": "21",
		"streetview_pitch": 5,
		"flag_MotorwaySite": false,
		"streetview_yaw": 0,
		"location": "BADDESLEY SERVICE STATION",
		"streetview_lng": null,
		"location_id": "1119973641"
	},
	{
		"category": "BP",
		"streetview_lat": null,
		"lng": -1.45076,
		"id": 84276433,
		"lat": 50.9564,
		"streetview_zoom": 0,
		"key_SiteType": "11",
		"streetview_pitch": 5,
		"flag_MotorwaySite": true,
		"streetview_yaw": 0,
		"location": "ROWNHAMS WEST MWSA",
		"streetview_lng": null,
		"location_id": "1461724128"
	},
	{
		"category": "BP",
		"streetview_lat": null,
		"lng": -1.44663,
		"id": 84276434,
		"lat": 50.95836,
		"streetview_zoom": 0,
		"key_SiteType": "11",
		"streetview_pitch": 5,
		"flag_MotorwaySite": true,
		"streetview_yaw": 0,
		"location": "ROWNHAMS EAST MWSA",
		"streetview_lng": null,
		"location_id": "1601384195"
	},
	{
		"category": "BP",
		"streetview_lat": null,
		"lng": -1.89717,
		"id": 84277169,
		"lat": 51.54781,
		"streetview_zoom": 0,
		"key_SiteType": "21",
		"streetview_pitch": 5,
		"flag_MotorwaySite": false,
		"streetview_yaw": 0,
		"location": "SHOW MEADOW SF CONNECT",
		"streetview_lng": null,
		"location_id": "2116242200"
	},
	{
		"category": "BP",
		"streetview_lat": null,
		"lng": -0.9453695,
		"id": 84277285,
		"lat": 50.8530052,
		"streetview_zoom": 0,
		"key_SiteType": "31",
		"streetview_pitch": 5,
		"flag_MotorwaySite": false,
		"streetview_yaw": 0,
		"location": "EMSWORTH SF CONNECT",
		"streetview_lng": null,
		"location_id": "335333335"
	},
	{
		"category": "BP",
		"streetview_lat": null,
		"lng": -2.036661,
		"id": 84277512,
		"lat": 51.782973,
		"streetview_zoom": 0,
		"key_SiteType": "31",
		"streetview_pitch": 5,
		"flag_MotorwaySite": false,
		"streetview_yaw": 0,
		"location": "CENTURION GARAGE",
		"streetview_lng": null,
		"location_id": "1372794547"
	},
	{
		"category": "BP",
		"streetview_lat": null,
		"lng": -1.976028,
		"id": 84277518,
		"lat": 50.79776,
		"streetview_zoom": 0,
		"key_SiteType": "21",
		"streetview_pitch": 5,
		"flag_MotorwaySite": false,
		"streetview_yaw": 0,
		"location": "MINSTER SF CONNECT",
		"streetview_lng": null,
		"location_id": "384246602"
	},
	{
		"category": "BP",
		"streetview_lat": null,
		"lng": -4.140158,
		"id": 84278001,
		"lat": 51.684149,
		"streetview_zoom": 0,
		"key_SiteType": "21",
		"streetview_pitch": 5,
		"flag_MotorwaySite": false,
		"streetview_yaw": 0,
		"location": "NTS LLANELLI SERVICE STATION",
		"streetview_lng": null,
		"location_id": "2112721382"
	},
	{
		"category": "BP",
		"streetview_lat": null,
		"lng": -2.123418,
		"id": 84278070,
		"lat": 51.524417,
		"streetview_zoom": 0,
		"key_SiteType": "31",
		"streetview_pitch": 5,
		"flag_MotorwaySite": false,
		"streetview_yaw": 0,
		"location": "STANTON ST. QUINTON SSTN PS118",
		"streetview_lng": null,
		"location_id": "40457750"
	},
	{
		"category": "BP",
		"streetview_lat": null,
		"lng": -2.553105,
		"id": 84278074,
		"lat": 51.565668,
		"streetview_zoom": 0,
		"key_SiteType": "31",
		"streetview_pitch": 5,
		"flag_MotorwaySite": false,
		"streetview_yaw": 0,
		"location": "ALMONDSBURY S.STN FS117",
		"streetview_lng": null,
		"location_id": "1876557641"
	},
	{
		"category": "BP",
		"streetview_lat": null,
		"lng": -0.953196,
		"id": 84278083,
		"lat": 51.471058,
		"streetview_zoom": 0,
		"key_SiteType": "31",
		"streetview_pitch": 5,
		"flag_MotorwaySite": false,
		"streetview_yaw": 0,
		"location": "LEANDER S.STN FS204",
		"streetview_lng": null,
		"location_id": "1562442961"
	},
	{
		"category": "BP",
		"streetview_lat": null,
		"lng": -0.960505,
		"id": 84278086,
		"lat": 51.451521,
		"streetview_zoom": 0,
		"key_SiteType": "31",
		"streetview_pitch": 5,
		"flag_MotorwaySite": false,
		"streetview_yaw": 0,
		"location": "READING S.STN FS106",
		"streetview_lng": null,
		"location_id": "218364629"
	},
	{
		"category": "BP",
		"streetview_lat": null,
		"lng": -3.065937,
		"id": 84278095,
		"lat": 51.017872,
		"streetview_zoom": 0,
		"key_SiteType": "31",
		"streetview_pitch": 5,
		"flag_MotorwaySite": false,
		"streetview_yaw": 0,
		"location": "TAUNTON DEANE S.STN FS119",
		"streetview_lng": null,
		"location_id": "495975998"
	},
	{
		"category": "BP",
		"streetview_lat": null,
		"lng": -2.414549,
		"id": 84278098,
		"lat": 51.452287,
		"streetview_zoom": 0,
		"key_SiteType": "31",
		"streetview_pitch": 5,
		"flag_MotorwaySite": false,
		"streetview_yaw": 0,
		"location": "WICK S.STN FS291",
		"streetview_lng": null,
		"location_id": "230920311"
	},
	{
		"category": "BP",
		"streetview_lat": null,
		"lng": -2.620931,
		"id": 84278109,
		"lat": 51.495594,
		"streetview_zoom": 0,
		"key_SiteType": "21",
		"streetview_pitch": 5,
		"flag_MotorwaySite": false,
		"streetview_yaw": 0,
		"location": "FALCONDALE SF CONNECT",
		"streetview_lng": null,
		"location_id": "848059835"
	},
	{
		"category": "BP",
		"streetview_lat": null,
		"lng": -3.66013,
		"id": 84278124,
		"lat": 50.57105,
		"streetview_zoom": 0,
		"key_SiteType": "21",
		"streetview_pitch": 5,
		"flag_MotorwaySite": false,
		"streetview_yaw": 0,
		"location": "BOVEY SF CONNECT",
		"streetview_lng": null,
		"location_id": "12663473"
	},
	{
		"category": "BP",
		"streetview_lat": null,
		"lng": -3.23738,
		"id": 84278207,
		"lat": 50.975021,
		"streetview_zoom": 0,
		"key_SiteType": "31",
		"streetview_pitch": 5,
		"flag_MotorwaySite": false,
		"streetview_yaw": 0,
		"location": "COURTFIELDS S/STN - FS517",
		"streetview_lng": null,
		"location_id": "805053787"
	},
	{
		"category": "BP",
		"streetview_lat": null,
		"lng": -2.6839,
		"id": 84278299,
		"lat": 51.63592,
		"streetview_zoom": 0,
		"key_SiteType": "31",
		"streetview_pitch": 5,
		"flag_MotorwaySite": false,
		"streetview_yaw": 0,
		"location": "CHEPSTOW S/STN - FS654",
		"streetview_lng": null,
		"location_id": "1452408946"
	},
	{
		"category": "BP",
		"streetview_lat": null,
		"lng": -2.531616,
		"id": 84278315,
		"lat": 51.495231,
		"streetview_zoom": 0,
		"key_SiteType": "31",
		"streetview_pitch": 5,
		"flag_MotorwaySite": false,
		"streetview_yaw": 0,
		"location": "FRENCHAY PARK SERVICE STATION",
		"streetview_lng": null,
		"location_id": "2114190888"
	},
	{
		"category": "BP",
		"streetview_lat": null,
		"lng": -3.490229,
		"id": 84278513,
		"lat": 50.720217,
		"streetview_zoom": 0,
		"key_SiteType": "31",
		"streetview_pitch": 5,
		"flag_MotorwaySite": false,
		"streetview_yaw": 0,
		"location": "BIRCHY BARTON S/STN - FS579",
		"streetview_lng": null,
		"location_id": "2026963266"
	},
	{
		"category": "BP",
		"streetview_lat": null,
		"lng": -0.98742,
		"id": 84278559,
		"lat": 51.4557,
		"streetview_zoom": 0,
		"key_SiteType": "21",
		"streetview_pitch": 5,
		"flag_MotorwaySite": false,
		"streetview_yaw": 0,
		"location": "KRISCO READING SERVICE STATION",
		"streetview_lng": null,
		"location_id": "687726471"
	},
	{
		"category": "BP",
		"streetview_lat": null,
		"lng": -2.129621,
		"id": 84279420,
		"lat": 51.478629,
		"streetview_zoom": 0,
		"key_SiteType": "31",
		"streetview_pitch": 5,
		"flag_MotorwaySite": false,
		"streetview_yaw": 0,
		"location": "CHIPPENHAM SF CONNECT",
		"streetview_lng": null,
		"location_id": "2109525113"
	},
	{
		"category": "BP",
		"streetview_lat": null,
		"lng": -1.819223,
		"id": 84279754,
		"lat": 51.074962,
		"streetview_zoom": 0,
		"key_SiteType": "31",
		"streetview_pitch": 5,
		"flag_MotorwaySite": false,
		"streetview_yaw": 0,
		"location": "WESTACRE S/STN",
		"streetview_lng": null,
		"location_id": "51301061"
	},
	{
		"category": "BP",
		"streetview_lat": null,
		"lng": -2.840823,
		"id": 84279794,
		"lat": 51.439541,
		"streetview_zoom": 0,
		"key_SiteType": "21",
		"streetview_pitch": 5,
		"flag_MotorwaySite": false,
		"streetview_yaw": 0,
		"location": "CLEVEDON SF CONNECT",
		"streetview_lng": null,
		"location_id": "1581412419"
	},
	{
		"category": "BP",
		"streetview_lat": null,
		"lng": -1.043727,
		"id": 84279795,
		"lat": 50.814754,
		"streetview_zoom": 0,
		"key_SiteType": "21",
		"streetview_pitch": 5,
		"flag_MotorwaySite": false,
		"streetview_yaw": 0,
		"location": "EASTERN ROAD SERVICE STATION",
		"streetview_lng": null,
		"location_id": "1628212226"
	},
	{
		"category": "BP",
		"streetview_lat": null,
		"lng": -2.290702,
		"id": 84279850,
		"lat": 51.805374,
		"streetview_zoom": 0,
		"key_SiteType": "31",
		"streetview_pitch": 5,
		"flag_MotorwaySite": false,
		"streetview_yaw": 0,
		"location": "HARDWICKE SF CONNECT",
		"streetview_lng": null,
		"location_id": "1733770754"
	},
	{
		"category": "BP",
		"streetview_lat": null,
		"lng": -2.86779,
		"id": 84280030,
		"lat": 51.02277,
		"streetview_zoom": 0,
		"key_SiteType": "21",
		"streetview_pitch": 5,
		"flag_MotorwaySite": false,
		"streetview_yaw": 0,
		"location": "CURRY RIVEL SERVICE STATION",
		"streetview_lng": null,
		"location_id": "760274057"
	},
	{
		"category": "BP",
		"streetview_lat": null,
		"lng": -4.634774,
		"id": 84280641,
		"lat": 51.761862,
		"streetview_zoom": 0,
		"key_SiteType": "31",
		"streetview_pitch": 5,
		"flag_MotorwaySite": false,
		"streetview_yaw": 0,
		"location": "LLANTEG SERVICE STATION",
		"streetview_lng": null,
		"location_id": "217706881"
	},
	{
		"category": "BP",
		"streetview_lat": null,
		"lng": -3.206662,
		"id": 84280977,
		"lat": 50.795476,
		"streetview_zoom": 0,
		"key_SiteType": "21",
		"streetview_pitch": 5,
		"flag_MotorwaySite": false,
		"streetview_yaw": 0,
		"location": "HONITON SF CONNECT",
		"streetview_lng": null,
		"location_id": "1878841604"
	},
	{
		"category": "BP",
		"streetview_lat": null,
		"lng": -1.83137,
		"id": 84281040,
		"lat": 51.63411,
		"streetview_zoom": 0,
		"key_SiteType": "31",
		"streetview_pitch": 5,
		"flag_MotorwaySite": false,
		"streetview_yaw": 0,
		"location": "SEVEN BRIDGES SF CONNECT",
		"streetview_lng": null,
		"location_id": "872255347"
	},
	{
		"category": "BP",
		"streetview_lat": null,
		"lng": -2.773977,
		"id": 84281042,
		"lat": 51.589505,
		"streetview_zoom": 0,
		"key_SiteType": "21",
		"streetview_pitch": 5,
		"flag_MotorwaySite": false,
		"streetview_yaw": 0,
		"location": "NTS MANOR GARAGE",
		"streetview_lng": null,
		"location_id": "1840052053"
	},
	{
		"category": "BP",
		"streetview_lat": null,
		"lng": -3.353932,
		"id": 84281332,
		"lat": 50.916382,
		"streetview_zoom": 0,
		"key_SiteType": "11",
		"streetview_pitch": 5,
		"flag_MotorwaySite": true,
		"streetview_yaw": 0,
		"location": "MOTO TIVERTON",
		"streetview_lng": null,
		"location_id": "734911432"
	},
	{
		"category": "BP",
		"streetview_lat": null,
		"lng": -1.535376,
		"id": 84281368,
		"lat": 51.214766,
		"streetview_zoom": 0,
		"key_SiteType": "11",
		"streetview_pitch": 5,
		"flag_MotorwaySite": true,
		"streetview_yaw": 0,
		"location": "WEYHILL EAST SERVICE AREA",
		"streetview_lng": null,
		"location_id": "1066219132"
	},
	{
		"category": "BP",
		"streetview_lat": null,
		"lng": -4.356695,
		"id": 84281431,
		"lat": 50.813417,
		"streetview_zoom": 0,
		"key_SiteType": "21",
		"streetview_pitch": 5,
		"flag_MotorwaySite": false,
		"streetview_yaw": 0,
		"location": "HOLSWORTHY SF CONNECT",
		"streetview_lng": null,
		"location_id": "1600291403"
	},
	{
		"category": "BP",
		"streetview_lat": null,
		"lng": -2.284844,
		"id": 84281447,
		"lat": 51.269869,
		"streetview_zoom": 0,
		"key_SiteType": "31",
		"streetview_pitch": 5,
		"flag_MotorwaySite": false,
		"streetview_yaw": 0,
		"location": "BECKINGTON SF CONNECT",
		"streetview_lng": null,
		"location_id": "325128020"
	},
	{
		"category": "BP",
		"streetview_lat": null,
		"lng": -1.742388,
		"id": 84281470,
		"lat": 51.545004,
		"streetview_zoom": 0,
		"key_SiteType": "21",
		"streetview_pitch": 5,
		"flag_MotorwaySite": false,
		"streetview_yaw": 0,
		"location": "COATE SF CONNECT",
		"streetview_lng": null,
		"location_id": "800212108"
	},
	{
		"category": "BP",
		"streetview_lat": null,
		"lng": -1.534905,
		"id": 84281960,
		"lat": 51.213653,
		"streetview_zoom": 0,
		"key_SiteType": "21",
		"streetview_pitch": 5,
		"flag_MotorwaySite": true,
		"streetview_yaw": 0,
		"location": "WEYHILL WEST SERVICE AREA",
		"streetview_lng": null,
		"location_id": "208675724"
	},
	{
		"category": "BP",
		"streetview_lat": null,
		"lng": -3.136361,
		"id": 84282012,
		"lat": 51.031816,
		"streetview_zoom": 0,
		"key_SiteType": "21",
		"streetview_pitch": 5,
		"flag_MotorwaySite": false,
		"streetview_yaw": 0,
		"location": "CROSS KEYS SF CONNECT",
		"streetview_lng": null,
		"location_id": "60885785"
	},
	{
		"category": "BP",
		"streetview_lat": null,
		"lng": -2.83752,
		"id": 84282036,
		"lat": 51.58754,
		"streetview_zoom": 0,
		"key_SiteType": "11",
		"streetview_pitch": 5,
		"flag_MotorwaySite": false,
		"streetview_yaw": 0,
		"location": "RONTEC MAGOR MSA",
		"streetview_lng": null,
		"location_id": "2058170013"
	},
	{
		"category": "BP",
		"streetview_lat": null,
		"lng": -3.309094,
		"id": 84282037,
		"lat": 51.508016,
		"streetview_zoom": 0,
		"key_SiteType": "11",
		"streetview_pitch": 5,
		"flag_MotorwaySite": false,
		"streetview_yaw": 0,
		"location": "RONTEC CARDIFF WEST MSA",
		"streetview_lng": null,
		"location_id": "848290114"
	},
	{
		"category": "BP",
		"streetview_lat": null,
		"lng": -3.252168,
		"id": 84282039,
		"lat": 51.567854,
		"streetview_zoom": 0,
		"key_SiteType": "31",
		"streetview_pitch": 5,
		"flag_MotorwaySite": false,
		"streetview_yaw": 0,
		"location": "RONTEC PERNHOS",
		"streetview_lng": null,
		"location_id": "512556629"
	},
	{
		"category": "BP",
		"streetview_lat": null,
		"lng": -3.909425,
		"id": 84282042,
		"lat": 51.662382,
		"streetview_zoom": 0,
		"key_SiteType": "31",
		"streetview_pitch": 5,
		"flag_MotorwaySite": false,
		"streetview_yaw": 0,
		"location": "RONTEC MORRISTON",
		"streetview_lng": null,
		"location_id": "58766268"
	},
	{
		"category": "BP",
		"streetview_lat": null,
		"lng": -2.697317,
		"id": 84282043,
		"lat": 51.505689,
		"streetview_zoom": 0,
		"key_SiteType": "31",
		"streetview_pitch": 5,
		"flag_MotorwaySite": false,
		"streetview_yaw": 0,
		"location": "RONTEC ST ANDREWS",
		"streetview_lng": null,
		"location_id": "1873501364"
	},
	{
		"category": "BP",
		"streetview_lat": null,
		"lng": -4.994582,
		"id": 84282044,
		"lat": 51.759238,
		"streetview_zoom": 0,
		"key_SiteType": "31",
		"streetview_pitch": 5,
		"flag_MotorwaySite": false,
		"streetview_yaw": 0,
		"location": "RONTEC HAVERFORDWEST",
		"streetview_lng": null,
		"location_id": "715190649"
	},
	{
		"category": "BP",
		"streetview_lat": null,
		"lng": -1.996902,
		"id": 84286493,
		"lat": 51.443973,
		"streetview_zoom": 0,
		"key_SiteType": "21",
		"streetview_pitch": 5,
		"flag_MotorwaySite": false,
		"streetview_yaw": 0,
		"location": "NTS CALNE SERVICE STATION",
		"streetview_lng": null,
		"location_id": "495991713"
	},
	{
		"category": "BP",
		"streetview_lat": null,
		"lng": -2.491174,
		"id": 84287841,
		"lat": 51.537198,
		"streetview_zoom": 0,
		"key_SiteType": "21",
		"streetview_pitch": 5,
		"flag_MotorwaySite": false,
		"streetview_yaw": 0,
		"location": "WESTERN GARAGE",
		"streetview_lng": null,
		"location_id": "555765328"
	},
	{
		"category": "BP",
		"streetview_lat": null,
		"lng": -2.989886,
		"id": 84288150,
		"lat": 51.165009,
		"streetview_zoom": 0,
		"key_SiteType": "31",
		"streetview_pitch": 5,
		"flag_MotorwaySite": false,
		"streetview_yaw": 0,
		"location": "DUNBALL SERVICE STATION PS1005",
		"streetview_lng": null,
		"location_id": "254742216"
	},
	{
		"category": "BP",
		"streetview_lat": null,
		"lng": -1.517555,
		"id": 84288691,
		"lat": 51.792731,
		"streetview_zoom": 0,
		"key_SiteType": "21",
		"streetview_pitch": 5,
		"flag_MotorwaySite": false,
		"streetview_yaw": 0,
		"location": "PARKVIEW FILLING STATION",
		"streetview_lng": null,
		"location_id": "103976872"
	},
	{
		"category": "BP",
		"streetview_lat": null,
		"lng": -1.763748,
		"id": 84289437,
		"lat": 51.560064,
		"streetview_zoom": 0,
		"key_SiteType": "21",
		"streetview_pitch": 5,
		"flag_MotorwaySite": false,
		"streetview_yaw": 0,
		"location": "QUEENS DRIVE SERVICE STATION",
		"streetview_lng": null,
		"location_id": "151660022"
	},
	{
		"category": "BP",
		"streetview_lat": null,
		"lng": -1.786519,
		"id": 84294711,
		"lat": 51.127546,
		"streetview_zoom": 0,
		"key_SiteType": "31",
		"streetview_pitch": 5,
		"flag_MotorwaySite": false,
		"streetview_yaw": 0,
		"location": "HIGH POST FILLING STATION",
		"streetview_lng": null,
		"location_id": "1425304460"
	},
	{
		"category": "BP",
		"streetview_lat": null,
		"lng": -0.15529,
		"id": 84269387,
		"lat": 51.15838,
		"streetview_zoom": 0,
		"key_SiteType": "31",
		"streetview_pitch": 5,
		"flag_MotorwaySite": false,
		"streetview_yaw": 0,
		"location": "GATWICK SOUTH SF CONNECT",
		"streetview_lng": null,
		"location_id": "330"
	},
	{
		"category": "BP",
		"streetview_lat": null,
		"lng": -0.17203,
		"id": 84269390,
		"lat": 51.36288,
		"streetview_zoom": 0,
		"key_SiteType": "21",
		"streetview_pitch": 5,
		"flag_MotorwaySite": false,
		"streetview_yaw": 0,
		"location": "CAMBRIDGE ROAD SF CONNECT",
		"streetview_lng": null,
		"location_id": "3534"
	},
	{
		"category": "BP",
		"streetview_lat": 51.409771,
		"lng": 0.14376,
		"id": 84269394,
		"lat": 51.409724,
		"streetview_zoom": 0,
		"key_SiteType": "31",
		"streetview_pitch": 2,
		"flag_MotorwaySite": false,
		"streetview_yaw": 108,
		"location": "RONTEC SWANLEY",
		"streetview_lng": 0.143738,
		"location_id": "3570"
	},
	{
		"category": "BP",
		"streetview_lat": null,
		"lng": -0.03774,
		"id": 84269396,
		"lat": 51.35345,
		"streetview_zoom": 0,
		"key_SiteType": "31",
		"streetview_pitch": 5,
		"flag_MotorwaySite": false,
		"streetview_yaw": 0,
		"location": "ADDINGTON SF CONNECT",
		"streetview_lng": null,
		"location_id": "3579"
	},
	{
		"category": "BP",
		"streetview_lat": 51.10479,
		"lng": -0.50995,
		"id": 84269399,
		"lat": 51.10476,
		"streetview_zoom": 0,
		"key_SiteType": "31",
		"streetview_pitch": 1,
		"flag_MotorwaySite": false,
		"streetview_yaw": -122,
		"location": "ALFOLD SF CONNECT",
		"streetview_lng": -0.509837,
		"location_id": "3587"
	},
	{
		"category": "BP",
		"streetview_lat": 51.422927,
		"lng": -0.44831,
		"id": 84269408,
		"lat": 51.42327,
		"streetview_zoom": 0,
		"key_SiteType": "31",
		"streetview_pitch": -1,
		"flag_MotorwaySite": false,
		"streetview_yaw": 31,
		"location": "ASHFORD SF CONNECT",
		"streetview_lng": -0.448495,
		"location_id": "3611"
	},
	{
		"category": "BP",
		"streetview_lat": 51.0291,
		"lng": 0.46638,
		"id": 84269409,
		"lat": 51.02903,
		"streetview_zoom": 0,
		"key_SiteType": "31",
		"streetview_pitch": -1,
		"flag_MotorwaySite": false,
		"streetview_yaw": 147,
		"location": "ASHDENE SERVICE STATION - NORT",
		"streetview_lng": 0.466654,
		"location_id": "3612"
	},
	{
		"category": "BP",
		"streetview_lat": null,
		"lng": 0.46744,
		"id": 84269410,
		"lat": 51.02874,
		"streetview_zoom": 0,
		"key_SiteType": "21",
		"streetview_pitch": 5,
		"flag_MotorwaySite": false,
		"streetview_yaw": 0,
		"location": "ASHDENE SERVICE STATION -SOUTH",
		"streetview_lng": null,
		"location_id": "3613"
	},
	{
		"category": "BP",
		"streetview_lat": 51.442429,
		"lng": -0.93139,
		"id": 84269431,
		"lat": 51.44215,
		"streetview_zoom": 0,
		"key_SiteType": "21",
		"streetview_pitch": 0,
		"flag_MotorwaySite": false,
		"streetview_yaw": -156,
		"location": "WELDALE SF CONNECT",
		"streetview_lng": -0.931263,
		"location_id": "3680"
	},
	{
		"category": "BP",
		"streetview_lat": 51.418211,
		"lng": -0.76101,
		"id": 84269435,
		"lat": 51.41791,
		"streetview_zoom": 0,
		"key_SiteType": "31",
		"streetview_pitch": 0,
		"flag_MotorwaySite": false,
		"streetview_yaw": 0,
		"location": "BRACKNELL SF CONNECT",
		"streetview_lng": -0.760976,
		"location_id": "3688"
	},
	{
		"category": "BP",
		"streetview_lat": 51.489453,
		"lng": -0.5365,
		"id": 84269439,
		"lat": 51.48961,
		"streetview_zoom": 0,
		"key_SiteType": "31",
		"streetview_pitch": 0,
		"flag_MotorwaySite": false,
		"streetview_yaw": 49,
		"location": "BRANDS HILL SF CONNECT",
		"streetview_lng": -0.536725,
		"location_id": "3695"
	},
	{
		"category": "BP",
		"streetview_lat": 50.994418,
		"lng": 0.37512,
		"id": 84269458,
		"lat": 50.99455,
		"streetview_zoom": 0,
		"key_SiteType": "21",
		"streetview_pitch": 0,
		"flag_MotorwaySite": false,
		"streetview_yaw": -7,
		"location": "BURWASH SERVICE STATION",
		"streetview_lng": 0.375135,
		"location_id": "3734"
	},
	{
		"category": "BP",
		"streetview_lat": 51.414898,
		"lng": 0.1252,
		"id": 84269463,
		"lat": 51.41464,
		"streetview_zoom": 0,
		"key_SiteType": "31",
		"streetview_pitch": -1,
		"flag_MotorwaySite": false,
		"streetview_yaw": 0,
		"location": "BY-PASS SF CONNECT",
		"streetview_lng": 0.125139,
		"location_id": "3741"
	},
	{
		"category": "BP",
		"streetview_lat": 51.274016,
		"lng": 0.07439,
		"id": 84269468,
		"lat": 51.27403,
		"streetview_zoom": 0,
		"key_SiteType": "21",
		"streetview_pitch": -1,
		"flag_MotorwaySite": false,
		"streetview_yaw": -81,
		"location": "WOLFE WESTERHAM SERVICESTATION",
		"streetview_lng": 0.074684,
		"location_id": "3754"
	},
	{
		"category": "BP",
		"streetview_lat": 50.956184,
		"lng": -0.13888,
		"id": 84269476,
		"lat": 50.95615,
		"streetview_zoom": 0,
		"key_SiteType": "31",
		"streetview_pitch": -1,
		"flag_MotorwaySite": false,
		"streetview_yaw": 101,
		"location": "CHANDLERS GARAGE",
		"streetview_lng": -0.139208,
		"location_id": "3771"
	},
	{
		"category": "BP",
		"streetview_lat": 51.484782,
		"lng": -0.5109,
		"id": 84269486,
		"lat": 51.48461,
		"streetview_zoom": 0,
		"key_SiteType": "31",
		"streetview_pitch": 4,
		"flag_MotorwaySite": false,
		"streetview_yaw": 178,
		"location": "RONTEC COLNBROOK",
		"streetview_lng": -0.51088,
		"location_id": "3793"
	},
	{
		"category": "BP",
		"streetview_lat": 51.140425,
		"lng": 0.26021,
		"id": 84269493,
		"lat": 51.14029,
		"streetview_zoom": 0,
		"key_SiteType": "21",
		"streetview_pitch": -1,
		"flag_MotorwaySite": false,
		"streetview_yaw": -103,
		"location": "CHURCH VIEW SF CONNECT",
		"streetview_lng": 0.260568,
		"location_id": "3804"
	},
	{
		"category": "BP",
		"streetview_lat": null,
		"lng": -0.15746,
		"id": 84269497,
		"lat": 51.46148,
		"streetview_zoom": 0,
		"key_SiteType": "21",
		"streetview_pitch": 5,
		"flag_MotorwaySite": false,
		"streetview_yaw": 0,
		"location": "CLAPHAM COMMON S/STN - FS628",
		"streetview_lng": null,
		"location_id": "3812"
	},
	{
		"category": "BP",
		"streetview_lat": null,
		"lng": -0.06823,
		"id": 84269505,
		"lat": 51.41318,
		"streetview_zoom": 0,
		"key_SiteType": "21",
		"streetview_pitch": 5,
		"flag_MotorwaySite": false,
		"streetview_yaw": 0,
		"location": "CORNWALL LODGE S/STN",
		"streetview_lng": null,
		"location_id": "3834"
	},
	{
		"category": "BP",
		"streetview_lat": 51.133177,
		"lng": -0.18632,
		"id": 84269507,
		"lat": 51.13314,
		"streetview_zoom": 0,
		"key_SiteType": "31",
		"streetview_pitch": 3,
		"flag_MotorwaySite": false,
		"streetview_yaw": -109,
		"location": "COUNTY OAK CONNECT",
		"streetview_lng": -0.186127,
		"location_id": "3840"
	},
	{
		"category": "BP",
		"streetview_lat": null,
		"lng": -0.239092,
		"id": 84269509,
		"lat": 51.491007,
		"streetview_zoom": 0,
		"key_SiteType": "31",
		"streetview_pitch": 5,
		"flag_MotorwaySite": false,
		"streetview_yaw": 0,
		"location": "CROMWELL ROAD SOUTH SF CONNECT",
		"streetview_lng": null,
		"location_id": "3844"
	},
	{
		"category": "BP",
		"streetview_lat": null,
		"lng": -0.39604,
		"id": 84269511,
		"lat": 51.47588,
		"streetview_zoom": 0,
		"key_SiteType": "31",
		"streetview_pitch": 5,
		"flag_MotorwaySite": false,
		"streetview_yaw": 0,
		"location": "CRANFORD SF CONNECT",
		"streetview_lng": null,
		"location_id": "3848"
	},
	{
		"category": "BP",
		"streetview_lat": null,
		"lng": -0.238507,
		"id": 84269513,
		"lat": 51.491595,
		"streetview_zoom": 0,
		"key_SiteType": "21",
		"streetview_pitch": 5,
		"flag_MotorwaySite": false,
		"streetview_yaw": 0,
		"location": "CROMWELL ROAD NORTH FS411",
		"streetview_lng": null,
		"location_id": "3857"
	},
	{
		"category": "BP",
		"streetview_lat": null,
		"lng": -0.32633,
		"id": 84269525,
		"lat": 51.23449,
		"streetview_zoom": 0,
		"key_SiteType": "21",
		"streetview_pitch": 5,
		"flag_MotorwaySite": false,
		"streetview_yaw": 0,
		"location": "DORKING SERVICE STATION",
		"streetview_lng": null,
		"location_id": "3892"
	},
	{
		"category": "BP",
		"streetview_lat": null,
		"lng": -0.0065,
		"id": 84269527,
		"lat": 51.42633,
		"streetview_zoom": 0,
		"key_SiteType": "31",
		"streetview_pitch": 5,
		"flag_MotorwaySite": false,
		"streetview_yaw": 0,
		"location": "DOWNHAM SF CONNECT",
		"streetview_lng": null,
		"location_id": "3901"
	},
	{
		"category": "BP",
		"streetview_lat": 51.21598,
		"lng": -0.78921,
		"id": 84269533,
		"lat": 51.21575,
		"streetview_zoom": 0,
		"key_SiteType": "31",
		"streetview_pitch": 0,
		"flag_MotorwaySite": false,
		"streetview_yaw": 0,
		"location": "FARNHAM SF CONNECT",
		"streetview_lng": -0.789352,
		"location_id": "3929"
	},
	{
		"category": "BP",
		"streetview_lat": null,
		"lng": -0.13386,
		"id": 84269534,
		"lat": 51.39093,
		"streetview_zoom": 0,
		"key_SiteType": "31",
		"streetview_pitch": 5,
		"flag_MotorwaySite": false,
		"streetview_yaw": 0,
		"location": "RONTEC FERNSIDE",
		"streetview_lng": null,
		"location_id": "3930"
	},
	{
		"category": "BP",
		"streetview_lat": 51.43137,
		"lng": -0.55449,
		"id": 84269535,
		"lat": 51.43126,
		"streetview_zoom": 0,
		"key_SiteType": "21",
		"streetview_pitch": 0,
		"flag_MotorwaySite": false,
		"streetview_yaw": 0,
		"location": "EGHAM HILL SF CONNECT",
		"streetview_lng": -0.554731,
		"location_id": "3935"
	},
	{
		"category": "BP",
		"streetview_lat": 51.438225,
		"lng": 0.23445,
		"id": 84269537,
		"lat": 51.4381,
		"streetview_zoom": 0,
		"key_SiteType": "21",
		"streetview_pitch": 0,
		"flag_MotorwaySite": false,
		"streetview_yaw": 0,
		"location": "ELMS S/STN - FS589",
		"streetview_lng": 0.234509,
		"location_id": "3938"
	},
	{
		"category": "BP",
		"streetview_lat": null,
		"lng": -0.21788,
		"id": 84269550,
		"lat": 51.49057,
		"streetview_zoom": 0,
		"key_SiteType": "31",
		"streetview_pitch": 5,
		"flag_MotorwaySite": false,
		"streetview_yaw": 0,
		"location": "FLYOVER SF CONNECT",
		"streetview_lng": null,
		"location_id": "3966"
	},
	{
		"category": "BP",
		"streetview_lat": 50.992382,
		"lng": -0.73199,
		"id": 84269565,
		"lat": 50.99225,
		"streetview_zoom": 0,
		"key_SiteType": "21",
		"streetview_pitch": 0,
		"flag_MotorwaySite": false,
		"streetview_yaw": 124,
		"location": "MIDHURST SF CONNECT",
		"streetview_lng": -0.732212,
		"location_id": "3994"
	},
	{
		"category": "BP",
		"streetview_lat": 51.364118,
		"lng": 0.1109,
		"id": 84269569,
		"lat": 51.36425,
		"streetview_zoom": 0,
		"key_SiteType": "31",
		"streetview_pitch": 5,
		"flag_MotorwaySite": false,
		"streetview_yaw": -19,
		"location": "GODDINGTON SF CONNECT",
		"streetview_lng": 0.111109,
		"location_id": "4001"
	},
	{
		"category": "BP",
		"streetview_lat": null,
		"lng": -0.08194,
		"id": 84269571,
		"lat": 51.31345,
		"streetview_zoom": 0,
		"key_SiteType": "31",
		"streetview_pitch": 5,
		"flag_MotorwaySite": false,
		"streetview_yaw": 0,
		"location": "GODSTONE ROAD SF CONNECT",
		"streetview_lng": null,
		"location_id": "4005"
	},
	{
		"category": "BP",
		"streetview_lat": 51.484816,
		"lng": -0.52901,
		"id": 84269572,
		"lat": 51.48471,
		"streetview_zoom": 0,
		"key_SiteType": "31",
		"streetview_pitch": 1,
		"flag_MotorwaySite": false,
		"streetview_yaw": -126,
		"location": "GOLDEN CROSS SERVICE STATION",
		"streetview_lng": -0.528754,
		"location_id": "4007"
	},
	{
		"category": "BP",
		"streetview_lat": 50.891286,
		"lng": 0.18348,
		"id": 84269573,
		"lat": 50.89143,
		"streetview_zoom": 0,
		"key_SiteType": "31",
		"streetview_pitch": 0,
		"flag_MotorwaySite": false,
		"streetview_yaw": 20,
		"location": "GOLDEN CROSS S/STN - FS518",
		"streetview_lng": 0.183471,
		"location_id": "4008"
	},
	{
		"category": "BP",
		"streetview_lat": 51.318002,
		"lng": -0.59195,
		"id": 84269574,
		"lat": 51.31818,
		"streetview_zoom": 0,
		"key_SiteType": "21",
		"streetview_pitch": 0,
		"flag_MotorwaySite": false,
		"streetview_yaw": 35,
		"location": "GOLDSWORTH PARK S/STN - FS567",
		"streetview_lng": -0.592087,
		"location_id": "4009"
	},
	{
		"category": "BP",
		"streetview_lat": 51.401317,
		"lng": -0.343329,
		"id": 84269589,
		"lat": 51.401315,
		"streetview_zoom": 0,
		"key_SiteType": "21",
		"streetview_pitch": 0,
		"flag_MotorwaySite": false,
		"streetview_yaw": -84,
		"location": "HAMPTON COURT SF CONNECT",
		"streetview_lng": -0.343098,
		"location_id": "4044"
	},
	{
		"category": "BP",
		"streetview_lat": null,
		"lng": -0.20105,
		"id": 84269591,
		"lat": 51.05611,
		"streetview_zoom": 0,
		"key_SiteType": "31",
		"streetview_pitch": 5,
		"flag_MotorwaySite": false,
		"streetview_yaw": 0,
		"location": "HANDCROSS S/STN FS018",
		"streetview_lng": null,
		"location_id": "4046"
	},
	{
		"category": "BP",
		"streetview_lat": 51.465879,
		"lng": -0.42381,
		"id": 84269598,
		"lat": 51.46569,
		"streetview_zoom": 0,
		"key_SiteType": "31",
		"streetview_pitch": 1,
		"flag_MotorwaySite": false,
		"streetview_yaw": 161,
		"location": "HATTON CROSS S/STN - FS587",
		"streetview_lng": -0.423975,
		"location_id": "4056"
	},
	{
		"category": "BP",
		"streetview_lat": 51.487643,
		"lng": -0.39455,
		"id": 84269605,
		"lat": 51.48779,
		"streetview_zoom": 0,
		"key_SiteType": "11",
		"streetview_pitch": 0,
		"flag_MotorwaySite": true,
		"streetview_yaw": -45,
		"location": "HESTON MWSA WESTBOUND",
		"streetview_lng": -0.394102,
		"location_id": "4083"
	},
	{
		"category": "BP",
		"streetview_lat": null,
		"lng": 0.02804,
		"id": 84269606,
		"lat": 51.48724,
		"streetview_zoom": 0,
		"key_SiteType": "21",
		"streetview_pitch": 5,
		"flag_MotorwaySite": false,
		"streetview_yaw": 0,
		"location": "HEXAGON S/STN - FS546",
		"streetview_lng": null,
		"location_id": "4084"
	},
	{
		"category": "BP",
		"streetview_lat": null,
		"lng": -0.2113,
		"id": 84269607,
		"lat": 51.31712,
		"streetview_zoom": 0,
		"key_SiteType": "21",
		"streetview_pitch": 5,
		"flag_MotorwaySite": false,
		"streetview_yaw": 0,
		"location": "HIGHFIELD SF CONNECT",
		"streetview_lng": null,
		"location_id": "4085"
	},
	{
		"category": "BP",
		"streetview_lat": 51.047329,
		"lng": 0.51178,
		"id": 84269609,
		"lat": 51.04748,
		"streetview_zoom": 0,
		"key_SiteType": "21",
		"streetview_pitch": -3,
		"flag_MotorwaySite": false,
		"streetview_yaw": 25,
		"location": "HIGHGATE S/STN FS427",
		"streetview_lng": 0.511685,
		"location_id": "4088"
	},
	{
		"category": "BP",
		"streetview_lat": null,
		"lng": -0.17045,
		"id": 84269613,
		"lat": 51.23501,
		"streetview_zoom": 0,
		"key_SiteType": "21",
		"streetview_pitch": 5,
		"flag_MotorwaySite": false,
		"streetview_yaw": 0,
		"location": "HILLSIDE SF CONNECT",
		"streetview_lng": null,
		"location_id": "4092"
	},
	{
		"category": "BP",
		"streetview_lat": 51.209354,
		"lng": 0.25706,
		"id": 84269616,
		"lat": 51.20927,
		"streetview_zoom": 0,
		"key_SiteType": "21",
		"streetview_pitch": 1,
		"flag_MotorwaySite": false,
		"streetview_yaw": -120,
		"location": "HILDEN SF CONNECT",
		"streetview_lng": 0.257254,
		"location_id": "4097"
	},
	{
		"category": "BP",
		"streetview_lat": null,
		"lng": -0.40463,
		"id": 84269628,
		"lat": 51.41569,
		"streetview_zoom": 0,
		"key_SiteType": "31",
		"streetview_pitch": 5,
		"flag_MotorwaySite": false,
		"streetview_yaw": 0,
		"location": "KEMPTON PARK SF CONNECT",
		"streetview_lng": null,
		"location_id": "4132"
	},
	{
		"category": "BP",
		"streetview_lat": null,
		"lng": 0.00412,
		"id": 84269645,
		"lat": 51.45883,
		"streetview_zoom": 0,
		"key_SiteType": "21",
		"streetview_pitch": 5,
		"flag_MotorwaySite": false,
		"streetview_yaw": 0,
		"location": "LEE SF CONNECT",
		"streetview_lng": null,
		"location_id": "4168"
	},
	{
		"category": "BP",
		"streetview_lat": 51.350848,
		"lng": -0.66416,
		"id": 84269654,
		"lat": 51.35098,
		"streetview_zoom": 0,
		"key_SiteType": "21",
		"streetview_pitch": 1,
		"flag_MotorwaySite": false,
		"streetview_yaw": 47,
		"location": "LIGHTWATER SF CONNECT",
		"streetview_lng": -0.664377,
		"location_id": "4188"
	},
	{
		"category": "BP",
		"streetview_lat": 51.483698,
		"lng": -0.62543,
		"id": 84269668,
		"lat": 51.4838,
		"streetview_zoom": 0,
		"key_SiteType": "21",
		"streetview_pitch": 1,
		"flag_MotorwaySite": false,
		"streetview_yaw": 6,
		"location": "MAIDENHEAD ROAD S/STN - FS630",
		"streetview_lng": -0.625603,
		"location_id": "4229"
	},
	{
		"category": "BP",
		"streetview_lat": 51.245868,
		"lng": -0.5302,
		"id": 84269682,
		"lat": 51.24608,
		"streetview_zoom": 0,
		"key_SiteType": "31",
		"streetview_pitch": 0,
		"flag_MotorwaySite": false,
		"streetview_yaw": -25,
		"location": "MERROW SF CONNECT",
		"streetview_lng": -0.530065,
		"location_id": "4265"
	},
	{
		"category": "BP",
		"streetview_lat": 51.437625,
		"lng": 0.04272,
		"id": 84269685,
		"lat": 51.43784,
		"streetview_zoom": 0,
		"key_SiteType": "21",
		"streetview_pitch": 0,
		"flag_MotorwaySite": false,
		"streetview_yaw": 0,
		"location": "MOTTINGHAM SF CONNECT",
		"streetview_lng": 0.042786,
		"location_id": "4273"
	},
	{
		"category": "BP",
		"streetview_lat": 51.300138,
		"lng": 0.40613,
		"id": 84269686,
		"lat": 51.29999,
		"streetview_zoom": 0,
		"key_SiteType": "21",
		"streetview_pitch": 2,
		"flag_MotorwaySite": false,
		"streetview_yaw": 0,
		"location": "PARKFOOT GARAGE LTD",
		"streetview_lng": 0.40634,
		"location_id": "4275"
	},
	{
		"category": "BP",
		"streetview_lat": null,
		"lng": -0.111,
		"id": 84269692,
		"lat": 51.37882,
		"streetview_zoom": 0,
		"key_SiteType": "31",
		"streetview_pitch": 5,
		"flag_MotorwaySite": false,
		"streetview_yaw": 0,
		"location": "MITCHAM ROAD SF CONNECT",
		"streetview_lng": null,
		"location_id": "4288"
	},
	{
		"category": "BP",
		"streetview_lat": 51.286637,
		"lng": -0.7258,
		"id": 84269700,
		"lat": 51.28664,
		"streetview_zoom": 0,
		"key_SiteType": "21",
		"streetview_pitch": 7,
		"flag_MotorwaySite": false,
		"streetview_yaw": -69,
		"location": "MYTCHETT SF CONNECT",
		"streetview_lng": -0.725524,
		"location_id": "4307"
	},
	{
		"category": "BP",
		"streetview_lat": 51.137759,
		"lng": -0.03552,
		"id": 84269709,
		"lat": 51.13759,
		"streetview_zoom": 0,
		"key_SiteType": "31",
		"streetview_pitch": 6,
		"flag_MotorwaySite": false,
		"streetview_yaw": -131,
		"location": "NORTH END SF CONNECT",
		"streetview_lng": -0.035362,
		"location_id": "4336"
	},
	{
		"category": "BP",
		"streetview_lat": 51.303363,
		"lng": -0.75985,
		"id": 84269715,
		"lat": 51.30317,
		"streetview_zoom": 0,
		"key_SiteType": "31",
		"streetview_pitch": 4,
		"flag_MotorwaySite": false,
		"streetview_yaw": 0,
		"location": "OAK FARM SF CONNECT",
		"streetview_lng": -0.759887,
		"location_id": "4347"
	},
	{
		"category": "BP",
		"streetview_lat": null,
		"lng": -0.2121,
		"id": 84269716,
		"lat": 51.27026,
		"streetview_zoom": 0,
		"key_SiteType": "31",
		"streetview_pitch": 5,
		"flag_MotorwaySite": false,
		"streetview_yaw": 0,
		"location": "OAK TREE SF CONNECT",
		"streetview_lng": null,
		"location_id": "4351"
	},
	{
		"category": "BP",
		"streetview_lat": 51.455826,
		"lng": -0.57659,
		"id": 84269721,
		"lat": 51.45589,
		"streetview_zoom": 0,
		"key_SiteType": "21",
		"streetview_pitch": 1,
		"flag_MotorwaySite": false,
		"streetview_yaw": 70,
		"location": "OLD WINDSOR SF CONNECT",
		"streetview_lng": -0.576776,
		"location_id": "4357"
	},
	{
		"category": "BP",
		"streetview_lat": 51.259185,
		"lng": -0.54462,
		"id": 84269730,
		"lat": 51.25907,
		"streetview_zoom": 0,
		"key_SiteType": "31",
		"streetview_pitch": 6,
		"flag_MotorwaySite": false,
		"streetview_yaw": 165,
		"location": "PANTILES FILLING STN FS028",
		"streetview_lng": -0.544721,
		"location_id": "4375"
	},
	{
		"category": "BP",
		"streetview_lat": 51.4175,
		"lng": 0.0919,
		"id": 84269736,
		"lat": 51.41763,
		"streetview_zoom": 0,
		"key_SiteType": "31",
		"streetview_pitch": 4,
		"flag_MotorwaySite": false,
		"streetview_yaw": -16,
		"location": "PERRY STREET SF CONNECT",
		"streetview_lng": 0.092091,
		"location_id": "4392"
	},
	{
		"category": "BP",
		"streetview_lat": null,
		"lng": -0.36188,
		"id": 84269758,
		"lat": 51.47902,
		"streetview_zoom": 0,
		"key_SiteType": "21",
		"streetview_pitch": 5,
		"flag_MotorwaySite": false,
		"streetview_yaw": 0,
		"location": "RAVENSCROFT SF CONNECT",
		"streetview_lng": null,
		"location_id": "4443"
	},
	{
		"category": "BP",
		"streetview_lat": null,
		"lng": 0.05552,
		"id": 84269771,
		"lat": 51.36715,
		"streetview_zoom": 0,
		"key_SiteType": "21",
		"streetview_pitch": 5,
		"flag_MotorwaySite": false,
		"streetview_yaw": 0,
		"location": "ROSETTA SF CONNECT",
		"streetview_lng": null,
		"location_id": "4481"
	},
	{
		"category": "BP",
		"streetview_lat": 51.472865,
		"lng": 0.16256,
		"id": 84269778,
		"lat": 51.47279,
		"streetview_zoom": 0,
		"key_SiteType": "21",
		"streetview_pitch": 2,
		"flag_MotorwaySite": false,
		"streetview_yaw": 137,
		"location": "ERITH - FS640",
		"streetview_lng": 0.162334,
		"location_id": "4493"
	},
	{
		"category": "BP",
		"streetview_lat": null,
		"lng": -0.05922,
		"id": 84269779,
		"lat": 51.37623,
		"streetview_zoom": 0,
		"key_SiteType": "31",
		"streetview_pitch": 5,
		"flag_MotorwaySite": false,
		"streetview_yaw": 0,
		"location": "SHIRLEY SF CONNECT",
		"streetview_lng": null,
		"location_id": "4495"
	},
	{
		"category": "BP",
		"streetview_lat": null,
		"lng": -0.31929,
		"id": 84269782,
		"lat": 51.338385,
		"streetview_zoom": 0,
		"key_SiteType": "21",
		"streetview_pitch": 5,
		"flag_MotorwaySite": false,
		"streetview_yaw": 0,
		"location": "RUSHETT SF CONNECT",
		"streetview_lng": null,
		"location_id": "4498"
	},
	{
		"category": "BP",
		"streetview_lat": 51.069957,
		"lng": 0.18663,
		"id": 84269787,
		"lat": 51.06989,
		"streetview_zoom": 0,
		"key_SiteType": "31",
		"streetview_pitch": 2,
		"flag_MotorwaySite": false,
		"streetview_yaw": 133,
		"location": "BOARS HEAD S/STN - FS571",
		"streetview_lng": 0.186398,
		"location_id": "4512"
	},
	{
		"category": "BP",
		"streetview_lat": null,
		"lng": -0.448349,
		"id": 84269792,
		"lat": 51.394671,
		"streetview_zoom": 0,
		"key_SiteType": "21",
		"streetview_pitch": 5,
		"flag_MotorwaySite": false,
		"streetview_yaw": 0,
		"location": "SHEPPERTON SF CONNECT",
		"streetview_lng": null,
		"location_id": "4521"
	},
	{
		"category": "BP",
		"streetview_lat": 51.14046,
		"lng": -0.85248,
		"id": 84269797,
		"lat": 51.14033,
		"streetview_zoom": 0,
		"key_SiteType": "21",
		"streetview_pitch": 1,
		"flag_MotorwaySite": false,
		"streetview_yaw": 143,
		"location": "SLEAFORD SERVICE STATION FS429",
		"streetview_lng": -0.852661,
		"location_id": "4536"
	},
	{
		"category": "BP",
		"streetview_lat": null,
		"lng": 0.02463,
		"id": 84269802,
		"lat": 51.46938,
		"streetview_zoom": 0,
		"key_SiteType": "21",
		"streetview_pitch": 5,
		"flag_MotorwaySite": false,
		"streetview_yaw": 0,
		"location": "RONTEC BLACKHEATH",
		"streetview_lng": null,
		"location_id": "4542"
	},
	{
		"category": "BP",
		"streetview_lat": 51.459121,
		"lng": -0.92109,
		"id": 84269834,
		"lat": 51.45916,
		"streetview_zoom": 0,
		"key_SiteType": "31",
		"streetview_pitch": 4,
		"flag_MotorwaySite": false,
		"streetview_yaw": 0,
		"location": "SONNING CUTTING SF CONNECT",
		"streetview_lng": -0.920635,
		"location_id": "4580"
	},
	{
		"category": "BP",
		"streetview_lat": null,
		"lng": -0.15419,
		"id": 84269846,
		"lat": 51.29331,
		"streetview_zoom": 0,
		"key_SiteType": "21",
		"streetview_pitch": 5,
		"flag_MotorwaySite": false,
		"streetview_yaw": 0,
		"location": "STAR LANE SERVICE CENTRE",
		"streetview_lng": null,
		"location_id": "4609"
	},
	{
		"category": "BP",
		"streetview_lat": null,
		"lng": -0.21409,
		"id": 84269851,
		"lat": 51.36492,
		"streetview_zoom": 0,
		"key_SiteType": "21",
		"streetview_pitch": 5,
		"flag_MotorwaySite": false,
		"streetview_yaw": 0,
		"location": "ST DUNSTANS SELF SERVE",
		"streetview_lng": null,
		"location_id": "4622"
	},
	{
		"category": "BP",
		"streetview_lat": 51.357444,
		"lng": -0.19165,
		"id": 84269863,
		"lat": 51.35753,
		"streetview_zoom": 0,
		"key_SiteType": "21",
		"streetview_pitch": 0,
		"flag_MotorwaySite": false,
		"streetview_yaw": -47,
		"location": "SUTTON COURT SSTN FS1022",
		"streetview_lng": -0.191312,
		"location_id": "4662"
	},
	{
		"category": "BP",
		"streetview_lat": 51.492929,
		"lng": 0.12147,
		"id": 84269873,
		"lat": 51.49294,
		"streetview_zoom": 0,
		"key_SiteType": "21",
		"streetview_pitch": 4,
		"flag_MotorwaySite": false,
		"streetview_yaw": 85,
		"location": "THAMESMEAD S/STN FS412",
		"streetview_lng": 0.121194,
		"location_id": "4693"
	},
	{
		"category": "BP",
		"streetview_lat": null,
		"lng": 0.31229,
		"id": 84269876,
		"lat": 51.2137,
		"streetview_zoom": 0,
		"key_SiteType": "31",
		"streetview_pitch": 5,
		"flag_MotorwaySite": false,
		"streetview_yaw": 0,
		"location": "THREE ELMS PS1035",
		"streetview_lng": null,
		"location_id": "4698"
	},
	{
		"category": "BP",
		"streetview_lat": null,
		"lng": -0.17869,
		"id": 84269881,
		"lat": 51.10232,
		"streetview_zoom": 0,
		"key_SiteType": "21",
		"streetview_pitch": 5,
		"flag_MotorwaySite": false,
		"streetview_yaw": 0,
		"location": "TILGATE EXPRESS",
		"streetview_lng": null,
		"location_id": "4710"
	},
	{
		"category": "BP",
		"streetview_lat": null,
		"lng": -0.00072,
		"id": 84269890,
		"lat": 51.48366,
		"streetview_zoom": 0,
		"key_SiteType": "31",
		"streetview_pitch": 5,
		"flag_MotorwaySite": false,
		"streetview_yaw": 0,
		"location": "TRAFALGAR SF CONNECT",
		"streetview_lng": null,
		"location_id": "4734"
	},
	{
		"category": "BP",
		"streetview_lat": 51.424082,
		"lng": -0.86698,
		"id": 84269891,
		"lat": 51.42428,
		"streetview_zoom": 0,
		"key_SiteType": "21",
		"streetview_pitch": -1,
		"flag_MotorwaySite": false,
		"streetview_yaw": 46,
		"location": "TRIANGLE SF CONNECT",
		"streetview_lng": -0.867258,
		"location_id": "4736"
	},
	{
		"category": "BP",
		"streetview_lat": null,
		"lng": -0.16159,
		"id": 84269892,
		"lat": 51.43735,
		"streetview_zoom": 0,
		"key_SiteType": "31",
		"streetview_pitch": 5,
		"flag_MotorwaySite": false,
		"streetview_yaw": 0,
		"location": "TRINITY SF CONNECT",
		"streetview_lng": null,
		"location_id": "4737"
	},
	{
		"category": "BP",
		"streetview_lat": 51.487146,
		"lng": -0.8685,
		"id": 84269900,
		"lat": 51.48729,
		"streetview_zoom": 0,
		"key_SiteType": "21",
		"streetview_pitch": -1,
		"flag_MotorwaySite": false,
		"streetview_yaw": -57,
		"location": "TWYFORD SF CONNECT",
		"streetview_lng": -0.868391,
		"location_id": "4748"
	},
	{
		"category": "BP",
		"streetview_lat": 51.461747,
		"lng": -0.1886,
		"id": 84269912,
		"lat": 51.46198,
		"streetview_zoom": 0,
		"key_SiteType": "31",
		"streetview_pitch": 2,
		"flag_MotorwaySite": false,
		"streetview_yaw": 12,
		"location": "WANDSWORTH SF CONNECT",
		"streetview_lng": -0.188486,
		"location_id": "4771"
	},
	{
		"category": "BP",
		"streetview_lat": 51.241976,
		"lng": -0.74365,
		"id": 84269925,
		"lat": 51.24186,
		"streetview_zoom": 0,
		"key_SiteType": "21",
		"streetview_pitch": 0,
		"flag_MotorwaySite": false,
		"streetview_yaw": 168,
		"location": "WELLS (CAR SALES) LIMITED",
		"streetview_lng": -0.743675,
		"location_id": "4793"
	},
	{
		"category": "BP",
		"streetview_lat": 51.406737,
		"lng": 0.02806,
		"id": 84269938,
		"lat": 51.40691,
		"streetview_zoom": 0,
		"key_SiteType": "31",
		"streetview_pitch": 0,
		"flag_MotorwaySite": false,
		"streetview_yaw": 24,
		"location": "WIDMORE SF CONNECT",
		"streetview_lng": 0.028037,
		"location_id": "4846"
	},
	{
		"category": "BP",
		"streetview_lat": null,
		"lng": -0.21434,
		"id": 84269939,
		"lat": 51.40891,
		"streetview_zoom": 0,
		"key_SiteType": "31",
		"streetview_pitch": 5,
		"flag_MotorwaySite": false,
		"streetview_yaw": 0,
		"location": "WIMBLEDON CHASE SF CONNECT",
		"streetview_lng": null,
		"location_id": "4857"
	},
	{
		"category": "BP",
		"streetview_lat": 51.292714,
		"lng": -0.49001,
		"id": 84269940,
		"lat": 51.29295,
		"streetview_zoom": 0,
		"key_SiteType": "31",
		"streetview_pitch": 1,
		"flag_MotorwaySite": false,
		"streetview_yaw": -28,
		"location": "WISLEY NORTH SF CONNECT",
		"streetview_lng": -0.489616,
		"location_id": "4862"
	},
	{
		"category": "BP",
		"streetview_lat": null,
		"lng": -0.48767,
		"id": 84269941,
		"lat": 51.29361,
		"streetview_zoom": 0,
		"key_SiteType": "31",
		"streetview_pitch": 5,
		"flag_MotorwaySite": false,
		"streetview_yaw": 0,
		"location": "WISLEY SOUTH SF CONNECT",
		"streetview_lng": null,
		"location_id": "4863"
	},
	{
		"category": "BP",
		"streetview_lat": null,
		"lng": -0.27075,
		"id": 84269943,
		"lat": 51.32838,
		"streetview_zoom": 0,
		"key_SiteType": "21",
		"streetview_pitch": 5,
		"flag_MotorwaySite": false,
		"streetview_yaw": 0,
		"location": "WOODCOTE SF CONNECT",
		"streetview_lng": null,
		"location_id": "4866"
	},
	{
		"category": "BP",
		"streetview_lat": null,
		"lng": -0.16685,
		"id": 84269947,
		"lat": 51.37216,
		"streetview_zoom": 0,
		"key_SiteType": "31",
		"streetview_pitch": 5,
		"flag_MotorwaySite": false,
		"streetview_yaw": 0,
		"location": "WRYTHE SF CONNECT",
		"streetview_lng": null,
		"location_id": "4876"
	},
	{
		"category": "BP",
		"streetview_lat": null,
		"lng": 0.352849,
		"id": 84269976,
		"lat": 51.135105,
		"streetview_zoom": 0,
		"key_SiteType": "31",
		"streetview_pitch": 5,
		"flag_MotorwaySite": false,
		"streetview_yaw": 0,
		"location": "BLUE BOYS SF CONNECT",
		"streetview_lng": null,
		"location_id": "9932"
	},
	{
		"category": "BP",
		"streetview_lat": null,
		"lng": -0.13725,
		"id": 84269986,
		"lat": 51.49249,
		"streetview_zoom": 0,
		"key_SiteType": "21",
		"streetview_pitch": 5,
		"flag_MotorwaySite": false,
		"streetview_yaw": 0,
		"location": "VAUXHALL BRIDGE S/STN - FS620",
		"streetview_lng": null,
		"location_id": "12321"
	},
	{
		"category": "BP",
		"streetview_lat": 51.423386,
		"lng": -0.93408,
		"id": 84269997,
		"lat": 51.42347,
		"streetview_zoom": 0,
		"key_SiteType": "21",
		"streetview_pitch": 3,
		"flag_MotorwaySite": false,
		"streetview_yaw": 39,
		"location": "LOWER EARLEY S.STN PG5122",
		"streetview_lng": -0.934322,
		"location_id": "12403"
	},
	{
		"category": "BP",
		"streetview_lat": 51.49119,
		"lng": -0.682516,
		"id": 84270001,
		"lat": 51.491082,
		"streetview_zoom": 0,
		"key_SiteType": "21",
		"streetview_pitch": 2,
		"flag_MotorwaySite": false,
		"streetview_yaw": -128,
		"location": "QUEENSHEAD SERVICE STATION",
		"streetview_lng": -0.682378,
		"location_id": "12508"
	},
	{
		"category": "BP",
		"streetview_lat": null,
		"lng": -0.24492,
		"id": 84270018,
		"lat": 51.35447,
		"streetview_zoom": 0,
		"key_SiteType": "21",
		"streetview_pitch": 5,
		"flag_MotorwaySite": false,
		"streetview_yaw": 0,
		"location": "EWELL SF CONNECT",
		"streetview_lng": null,
		"location_id": "13619"
	},
	{
		"category": "BP",
		"streetview_lat": 51.363403,
		"lng": -0.69165,
		"id": 84270019,
		"lat": 51.36326,
		"streetview_zoom": 0,
		"key_SiteType": "31",
		"streetview_pitch": 5,
		"flag_MotorwaySite": false,
		"streetview_yaw": 144,
		"location": "BAGSHOT SF CONNECT",
		"streetview_lng": -0.691869,
		"location_id": "13620"
	},
	{
		"category": "BP",
		"streetview_lat": 51.488576,
		"lng": -0.387,
		"id": 84270026,
		"lat": 51.48856,
		"streetview_zoom": 0,
		"key_SiteType": "11",
		"streetview_pitch": -2,
		"flag_MotorwaySite": true,
		"streetview_yaw": -100,
		"location": "HESTON MWSA EASTBOUND",
		"streetview_lng": -0.386732,
		"location_id": "13634"
	},
	{
		"category": "BP",
		"streetview_lat": 51.285012,
		"lng": 0.49442,
		"id": 84270027,
		"lat": 51.28486,
		"streetview_zoom": 0,
		"key_SiteType": "31",
		"streetview_pitch": 2,
		"flag_MotorwaySite": false,
		"streetview_yaw": 0,
		"location": "TUDOR SF CONNECT",
		"streetview_lng": 0.494603,
		"location_id": "13635"
	},
	{
		"category": "BP",
		"streetview_lat": null,
		"lng": -0.40589,
		"id": 84270042,
		"lat": 51.3733,
		"streetview_zoom": 0,
		"key_SiteType": "21",
		"streetview_pitch": 5,
		"flag_MotorwaySite": false,
		"streetview_yaw": 0,
		"location": "HKS HALFWAY",
		"streetview_lng": null,
		"location_id": "14261"
	},
	{
		"category": "BP",
		"streetview_lat": null,
		"lng": 0.08038,
		"id": 84270050,
		"lat": 51.45099,
		"streetview_zoom": 0,
		"key_SiteType": "31",
		"streetview_pitch": 5,
		"flag_MotorwaySite": false,
		"streetview_yaw": 0,
		"location": "CROWNWOOD SF CONNECT",
		"streetview_lng": null,
		"location_id": "14521"
	},
	{
		"category": "BP",
		"streetview_lat": null,
		"lng": -0.16312,
		"id": 84270070,
		"lat": 50.8957,
		"streetview_zoom": 0,
		"key_SiteType": "31",
		"streetview_pitch": 5,
		"flag_MotorwaySite": false,
		"streetview_yaw": 0,
		"location": "PYECOMBE SF CONNECT",
		"streetview_lng": null,
		"location_id": "15089"
	},
	{
		"category": "BP",
		"streetview_lat": null,
		"lng": -0.19775,
		"id": 84270075,
		"lat": 51.08484,
		"streetview_zoom": 0,
		"key_SiteType": "11",
		"streetview_pitch": 5,
		"flag_MotorwaySite": true,
		"streetview_yaw": 0,
		"location": "PEASE POTTAGE MWSA",
		"streetview_lng": null,
		"location_id": "17320"
	},
	{
		"category": "BP",
		"streetview_lat": null,
		"lng": -0.65053,
		"id": 84270079,
		"lat": 51.18691,
		"streetview_zoom": 0,
		"key_SiteType": "21",
		"streetview_pitch": 5,
		"flag_MotorwaySite": false,
		"streetview_yaw": 0,
		"location": "EASHING SERVICE STATION",
		"streetview_lng": null,
		"location_id": "17697"
	},
	{
		"category": "BP",
		"streetview_lat": 51.337836,
		"lng": -0.64107,
		"id": 84270085,
		"lat": 51.33799,
		"streetview_zoom": 0,
		"key_SiteType": "31",
		"streetview_pitch": 0,
		"flag_MotorwaySite": false,
		"streetview_yaw": 23,
		"location": "GORDON SF CONNECT",
		"streetview_lng": -0.641165,
		"location_id": "17756"
	},
	{
		"category": "BP",
		"streetview_lat": null,
		"lng": -0.28859,
		"id": 84270087,
		"lat": 51.46786,
		"streetview_zoom": 0,
		"key_SiteType": "21",
		"streetview_pitch": 5,
		"flag_MotorwaySite": false,
		"streetview_yaw": 0,
		"location": "BEACON SERVICE STATION",
		"streetview_lng": null,
		"location_id": "17813"
	},
	{
		"category": "BP",
		"streetview_lat": 51.398259,
		"lng": -0.74485,
		"id": 84270091,
		"lat": 51.39839,
		"streetview_zoom": 0,
		"key_SiteType": "31",
		"streetview_pitch": 0,
		"flag_MotorwaySite": false,
		"streetview_yaw": 75,
		"location": "HORNBILL SF CONNECT",
		"streetview_lng": -0.745148,
		"location_id": "17867"
	},
	{
		"category": "BP",
		"streetview_lat": null,
		"lng": -0.489,
		"id": 84270485,
		"lat": 51.38896,
		"streetview_zoom": 0,
		"key_SiteType": "21",
		"streetview_pitch": 5,
		"flag_MotorwaySite": false,
		"streetview_yaw": 0,
		"location": "CHERTSEY SERVICE STATION",
		"streetview_lng": null,
		"location_id": "28117"
	},
	{
		"category": "BP",
		"streetview_lat": null,
		"lng": -0.43343,
		"id": 84270499,
		"lat": 51.04531,
		"streetview_zoom": 0,
		"key_SiteType": "21",
		"streetview_pitch": 5,
		"flag_MotorwaySite": false,
		"streetview_yaw": 0,
		"location": "FIVE OAKS SERVICE STATION",
		"streetview_lng": null,
		"location_id": "28406"
	},
	{
		"category": "BP",
		"streetview_lat": null,
		"lng": -0.33041,
		"id": 84270507,
		"lat": 51.29823,
		"streetview_zoom": 0,
		"key_SiteType": "21",
		"streetview_pitch": 5,
		"flag_MotorwaySite": false,
		"streetview_yaw": 0,
		"location": "LEATHERHEAD SF CONNECT",
		"streetview_lng": null,
		"location_id": "28459"
	},
	{
		"category": "BP",
		"streetview_lat": null,
		"lng": 0.160902,
		"id": 84275684,
		"lat": 51.053774,
		"streetview_zoom": 0,
		"key_SiteType": "21",
		"streetview_pitch": 5,
		"flag_MotorwaySite": false,
		"streetview_yaw": 0,
		"location": "CROFT ROAD SF CONNECT",
		"streetview_lng": null,
		"location_id": "524561973"
	},
	{
		"category": "BP",
		"streetview_lat": null,
		"lng": -0.90118,
		"id": 84275782,
		"lat": 51.4378,
		"streetview_zoom": 0,
		"key_SiteType": "21",
		"streetview_pitch": 5,
		"flag_MotorwaySite": false,
		"streetview_yaw": 0,
		"location": "LODDON BRIDGE SERVICE STATION",
		"streetview_lng": null,
		"location_id": "855509168"
	},
	{
		"category": "BP",
		"streetview_lat": null,
		"lng": -0.7377,
		"id": 84276212,
		"lat": 51.111276,
		"streetview_zoom": 0,
		"key_SiteType": "21",
		"streetview_pitch": 5,
		"flag_MotorwaySite": false,
		"streetview_yaw": 0,
		"location": "HINDHEAD SF CONNECT",
		"streetview_lng": null,
		"location_id": "1389328805"
	},
	{
		"category": "BP",
		"streetview_lat": null,
		"lng": 0.042124,
		"id": 84276624,
		"lat": 51.273376,
		"streetview_zoom": 0,
		"key_SiteType": "11",
		"streetview_pitch": 5,
		"flag_MotorwaySite": true,
		"streetview_yaw": 0,
		"location": "CLACKET LANE EAST CONNECT MWSA",
		"streetview_lng": null,
		"location_id": "941232009"
	},
	{
		"category": "BP",
		"streetview_lat": null,
		"lng": 0.03733,
		"id": 84276625,
		"lat": 51.27189,
		"streetview_zoom": 0,
		"key_SiteType": "11",
		"streetview_pitch": 5,
		"flag_MotorwaySite": true,
		"streetview_yaw": 0,
		"location": "CLACKET LANE WEST CONNECT MWSA",
		"streetview_lng": null,
		"location_id": "1081355822"
	},
	{
		"category": "BP",
		"streetview_lat": null,
		"lng": -0.919936,
		"id": 84277441,
		"lat": 51.174238,
		"streetview_zoom": 0,
		"key_SiteType": "21",
		"streetview_pitch": 5,
		"flag_MotorwaySite": false,
		"streetview_yaw": 0,
		"location": "HEN AND CHICKEN SERVICE STATIO",
		"streetview_lng": null,
		"location_id": "214925681"
	},
	{
		"category": "BP",
		"streetview_lat": null,
		"lng": 0.444904,
		"id": 84278018,
		"lat": 51.33692,
		"streetview_zoom": 0,
		"key_SiteType": "21",
		"streetview_pitch": 5,
		"flag_MotorwaySite": false,
		"streetview_yaw": 0,
		"location": "HOLBOROUGH SF CONNECT",
		"streetview_lng": null,
		"location_id": "853720483"
	},
	{
		"category": "BP",
		"streetview_lat": null,
		"lng": -0.263501,
		"id": 84278068,
		"lat": 51.49626,
		"streetview_zoom": 0,
		"key_SiteType": "21",
		"streetview_pitch": 5,
		"flag_MotorwaySite": false,
		"streetview_yaw": 0,
		"location": "CHISWICK S.STN FS097",
		"streetview_lng": null,
		"location_id": "1664088402"
	},
	{
		"category": "BP",
		"streetview_lat": null,
		"lng": -0.870859,
		"id": 84278069,
		"lat": 51.246207,
		"streetview_zoom": 0,
		"key_SiteType": "21",
		"streetview_pitch": 5,
		"flag_MotorwaySite": false,
		"streetview_yaw": 0,
		"location": "CRONDALL SF CONNECT",
		"streetview_lng": null,
		"location_id": "664249670"
	},
	{
		"category": "BP",
		"streetview_lat": null,
		"lng": -0.783625,
		"id": 84278080,
		"lat": 51.223528,
		"streetview_zoom": 0,
		"key_SiteType": "31",
		"streetview_pitch": 5,
		"flag_MotorwaySite": false,
		"streetview_yaw": 0,
		"location": "FARNHAM S.STN FS110",
		"streetview_lng": null,
		"location_id": "2009465477"
	},
	{
		"category": "BP",
		"streetview_lat": null,
		"lng": -0.059155,
		"id": 84278082,
		"lat": 51.480671,
		"streetview_zoom": 0,
		"key_SiteType": "31",
		"streetview_pitch": 5,
		"flag_MotorwaySite": false,
		"streetview_yaw": 0,
		"location": "HOPFIELD S.STN FS170",
		"streetview_lng": null,
		"location_id": "1408003403"
	},
	{
		"category": "BP",
		"streetview_lat": null,
		"lng": -0.267342,
		"id": 84278087,
		"lat": 51.401433,
		"streetview_zoom": 0,
		"key_SiteType": "31",
		"streetview_pitch": 5,
		"flag_MotorwaySite": false,
		"streetview_yaw": 0,
		"location": "ROSE COTTAGE S.STN FS184",
		"streetview_lng": null,
		"location_id": "1237500623"
	},
	{
		"category": "BP",
		"streetview_lat": null,
		"lng": -0.3871372,
		"id": 84278090,
		"lat": 51.2692845,
		"streetview_zoom": 0,
		"key_SiteType": "31",
		"streetview_pitch": 5,
		"flag_MotorwaySite": false,
		"streetview_yaw": 0,
		"location": "SHIRLEY S.STN FS187",
		"streetview_lng": null,
		"location_id": "1574779786"
	},
	{
		"category": "BP",
		"streetview_lat": null,
		"lng": 0.195369,
		"id": 84278091,
		"lat": 51.285962,
		"streetview_zoom": 0,
		"key_SiteType": "31",
		"streetview_pitch": 5,
		"flag_MotorwaySite": false,
		"streetview_yaw": 0,
		"location": "ST JOHN'S HILL S.STN FS191",
		"streetview_lng": null,
		"location_id": "1613761864"
	},
	{
		"category": "BP",
		"streetview_lat": null,
		"lng": -0.83751,
		"id": 84278123,
		"lat": 51.40502,
		"streetview_zoom": 0,
		"key_SiteType": "21",
		"streetview_pitch": 5,
		"flag_MotorwaySite": false,
		"streetview_yaw": 0,
		"location": "WOKINGHAM SF CONNECT",
		"streetview_lng": null,
		"location_id": "2146834734"
	},
	{
		"category": "BP",
		"streetview_lat": null,
		"lng": -0.387306,
		"id": 84278228,
		"lat": 50.937627,
		"streetview_zoom": 0,
		"key_SiteType": "21",
		"streetview_pitch": 5,
		"flag_MotorwaySite": false,
		"streetview_yaw": 0,
		"location": "ASHINGTON SF CONNECT",
		"streetview_lng": null,
		"location_id": "1624489004"
	},
	{
		"category": "BP",
		"streetview_lat": null,
		"lng": 0.51929,
		"id": 84278229,
		"lat": 51.36777,
		"streetview_zoom": 0,
		"key_SiteType": "21",
		"streetview_pitch": 5,
		"flag_MotorwaySite": false,
		"streetview_yaw": 0,
		"location": "CHATHAM SF CONNECT",
		"streetview_lng": null,
		"location_id": "587745987"
	},
	{
		"category": "BP",
		"streetview_lat": null,
		"lng": -0.57603,
		"id": 84278310,
		"lat": 51.242743,
		"streetview_zoom": 0,
		"key_SiteType": "21",
		"streetview_pitch": 5,
		"flag_MotorwaySite": false,
		"streetview_yaw": 0,
		"location": "GUILD FOODS MARKET",
		"streetview_lng": null,
		"location_id": "1328803992"
	},
	{
		"category": "BP",
		"streetview_lat": null,
		"lng": 0.020914,
		"id": 84278545,
		"lat": 50.877141,
		"streetview_zoom": 0,
		"key_SiteType": "21",
		"streetview_pitch": 5,
		"flag_MotorwaySite": false,
		"streetview_yaw": 0,
		"location": "MALLING SF CONNECT",
		"streetview_lng": null,
		"location_id": "1663349"
	},
	{
		"category": "BP",
		"streetview_lat": null,
		"lng": -0.18028,
		"id": 84280050,
		"lat": 51.12131,
		"streetview_zoom": 0,
		"key_SiteType": "21",
		"streetview_pitch": 5,
		"flag_MotorwaySite": false,
		"streetview_yaw": 0,
		"location": "CRAWLEY AUTOPOINT S/STN",
		"streetview_lng": null,
		"location_id": "1306631291"
	},
	{
		"category": "BP",
		"streetview_lat": null,
		"lng": -0.199526,
		"id": 84281214,
		"lat": 51.22366,
		"streetview_zoom": 0,
		"key_SiteType": "21",
		"streetview_pitch": 5,
		"flag_MotorwaySite": false,
		"streetview_yaw": 0,
		"location": "WOODHATCH SERVICE STATION",
		"streetview_lng": null,
		"location_id": "1013125978"
	},
	{
		"category": "BP",
		"streetview_lat": null,
		"lng": 0.237489,
		"id": 84282041,
		"lat": 51.437628,
		"streetview_zoom": 0,
		"key_SiteType": "31",
		"streetview_pitch": 5,
		"flag_MotorwaySite": false,
		"streetview_yaw": 0,
		"location": "RONTEC DARTFORD",
		"streetview_lng": null,
		"location_id": "1604248143"
	},
	{
		"category": "BP",
		"streetview_lat": null,
		"lng": -0.131839,
		"id": 84283591,
		"lat": 51.373148,
		"streetview_zoom": 0,
		"key_SiteType": "21",
		"streetview_pitch": 5,
		"flag_MotorwaySite": false,
		"streetview_yaw": 0,
		"location": "BEDDINGTON SERVICE STATION",
		"streetview_lng": null,
		"location_id": "440559343"
	},
	{
		"category": "BP",
		"streetview_lat": null,
		"lng": -0.645078,
		"id": 84283592,
		"lat": 51.08859,
		"streetview_zoom": 0,
		"key_SiteType": "21",
		"streetview_pitch": 5,
		"flag_MotorwaySite": false,
		"streetview_yaw": 0,
		"location": "BROKEN SPUR SERVICE STATION",
		"streetview_lng": null,
		"location_id": "870211166"
	},
	{
		"category": "BP",
		"streetview_lat": null,
		"lng": -0.386635,
		"id": 84283598,
		"lat": 51.386731,
		"streetview_zoom": 0,
		"key_SiteType": "21",
		"streetview_pitch": 5,
		"flag_MotorwaySite": false,
		"streetview_yaw": 0,
		"location": "MOLESEY ROAD SERVICE STATION",
		"streetview_lng": null,
		"location_id": "1953746048"
	},
	{
		"category": "BP",
		"streetview_lat": null,
		"lng": -0.307371,
		"id": 84283599,
		"lat": 51.430368,
		"streetview_zoom": 0,
		"key_SiteType": "21",
		"streetview_pitch": 5,
		"flag_MotorwaySite": false,
		"streetview_yaw": 0,
		"location": "HAM CROSS SERVICE STATION",
		"streetview_lng": null,
		"location_id": "97490743"
	},
	{
		"category": "BP",
		"streetview_lat": null,
		"lng": 0.321078,
		"id": 84286492,
		"lat": 51.476242,
		"streetview_zoom": 0,
		"key_SiteType": "21",
		"streetview_pitch": 5,
		"flag_MotorwaySite": false,
		"streetview_yaw": 0,
		"location": "NTS GRAYS SERVICE STATION",
		"streetview_lng": null,
		"location_id": "238093626"
	},
	{
		"category": "BP",
		"streetview_lat": null,
		"lng": -0.790432,
		"id": 84286938,
		"lat": 51.370793,
		"streetview_zoom": 0,
		"key_SiteType": "21",
		"streetview_pitch": 5,
		"flag_MotorwaySite": false,
		"streetview_yaw": 0,
		"location": "CROWTHORNE SF CONNECT",
		"streetview_lng": null,
		"location_id": "1583333561"
	},
	{
		"category": "BP",
		"streetview_lat": null,
		"lng": -0.075705,
		"id": 84287840,
		"lat": 51.461318,
		"streetview_zoom": 0,
		"key_SiteType": "21",
		"streetview_pitch": 5,
		"flag_MotorwaySite": false,
		"streetview_yaw": 0,
		"location": "GROVE VALE FILLING STATION",
		"streetview_lng": null,
		"location_id": "1147285241"
	},
	{
		"category": "BP",
		"streetview_lat": null,
		"lng": 0.055132,
		"id": 84289504,
		"lat": 51.032807,
		"streetview_zoom": 0,
		"key_SiteType": "21",
		"streetview_pitch": 5,
		"flag_MotorwaySite": false,
		"streetview_yaw": 0,
		"location": "NUTLEY SERVICE STATION",
		"streetview_lng": null,
		"location_id": "1976357929"
	},
	{
		"category": "BP",
		"streetview_lat": null,
		"lng": 0.162545,
		"id": 84289505,
		"lat": 51.402875,
		"streetview_zoom": 0,
		"key_SiteType": "21",
		"streetview_pitch": 5,
		"flag_MotorwaySite": false,
		"streetview_yaw": 0,
		"location": "SWANLEY SERVICE STATION",
		"streetview_lng": null,
		"location_id": "1693237372"
	},
	{
		"category": "BP",
		"streetview_lat": null,
		"lng": 0.547129,
		"id": 84294710,
		"lat": 51.109068,
		"streetview_zoom": 0,
		"key_SiteType": "21",
		"streetview_pitch": 5,
		"flag_MotorwaySite": false,
		"streetview_yaw": 0,
		"location": "ASHWAL GARAGE",
		"streetview_lng": null,
		"location_id": "1113815227"
	},
	{
		"category": "BP",
		"streetview_lat": 51.564761,
		"lng": 0.64198,
		"id": 84269378,
		"lat": 51.56479,
		"streetview_zoom": 0,
		"key_SiteType": "21",
		"streetview_pitch": 6,
		"flag_MotorwaySite": false,
		"streetview_yaw": -64,
		"location": "RONTEC LEIGH-ON-SEA",
		"streetview_lng": 0.642287,
		"location_id": "181"
	},
	{
		"category": "BP",
		"streetview_lat": 51.581007,
		"lng": 0.23602,
		"id": 84269383,
		"lat": 51.58081,
		"streetview_zoom": 0,
		"key_SiteType": "31",
		"streetview_pitch": 5,
		"flag_MotorwaySite": false,
		"streetview_yaw": -143,
		"location": "RONTEC HORNCHURCH",
		"streetview_lng": 0.236164,
		"location_id": "192"
	},
	{
		"category": "BP",
		"streetview_lat": 51.519815,
		"lng": 0.56765,
		"id": 84269391,
		"lat": 51.51964,
		"streetview_zoom": 0,
		"key_SiteType": "21",
		"streetview_pitch": -1,
		"flag_MotorwaySite": false,
		"streetview_yaw": 0,
		"location": "LONG ROAD S/STN - FS565",
		"streetview_lng": 0.567581,
		"location_id": "3535"
	},
	{
		"category": "BP",
		"streetview_lat": null,
		"lng": 0.0018,
		"id": 84269395,
		"lat": 51.68591,
		"streetview_zoom": 0,
		"key_SiteType": "21",
		"streetview_pitch": 5,
		"flag_MotorwaySite": false,
		"streetview_yaw": 0,
		"location": "ABBEY SERVICE STATION",
		"streetview_lng": null,
		"location_id": "3572"
	},
	{
		"category": "BP",
		"streetview_lat": null,
		"lng": -0.07425,
		"id": 84269404,
		"lat": 51.55545,
		"streetview_zoom": 0,
		"key_SiteType": "31",
		"streetview_pitch": 5,
		"flag_MotorwaySite": false,
		"streetview_yaw": 0,
		"location": "AMBASSADOR S/STN FS002",
		"streetview_lng": null,
		"location_id": "3597"
	},
	{
		"category": "BP",
		"streetview_lat": null,
		"lng": 0.487328,
		"id": 84269414,
		"lat": 51.722561,
		"streetview_zoom": 0,
		"key_SiteType": "21",
		"streetview_pitch": 5,
		"flag_MotorwaySite": false,
		"streetview_yaw": 0,
		"location": "BADDOW ROAD S/STN - FS647",
		"streetview_lng": null,
		"location_id": "3627"
	},
	{
		"category": "BP",
		"streetview_lat": 51.755413,
		"lng": 0.51921,
		"id": 84269417,
		"lat": 51.7551,
		"streetview_zoom": 0,
		"key_SiteType": "31",
		"streetview_pitch": 3,
		"flag_MotorwaySite": false,
		"streetview_yaw": -171,
		"location": "BOREHAM SF CONNECT",
		"streetview_lng": 0.519085,
		"location_id": "3644"
	},
	{
		"category": "BP",
		"streetview_lat": null,
		"lng": -0.16682,
		"id": 84269420,
		"lat": 51.55151,
		"streetview_zoom": 0,
		"key_SiteType": "21",
		"streetview_pitch": 5,
		"flag_MotorwaySite": false,
		"streetview_yaw": 0,
		"location": "BELSIZE PARK SELF SERVE",
		"streetview_lng": null,
		"location_id": "3649"
	},
	{
		"category": "BP",
		"streetview_lat": 51.572576,
		"lng": 0.63945,
		"id": 84269421,
		"lat": 51.57247,
		"streetview_zoom": 0,
		"key_SiteType": "21",
		"streetview_pitch": 1,
		"flag_MotorwaySite": false,
		"streetview_yaw": 117,
		"location": "BELGRAVE FILLING STATION",
		"streetview_lng": 0.639152,
		"location_id": "3650"
	},
	{
		"category": "BP",
		"streetview_lat": null,
		"lng": -0.34185,
		"id": 84269424,
		"lat": 51.57907,
		"streetview_zoom": 0,
		"key_SiteType": "21",
		"streetview_pitch": 5,
		"flag_MotorwaySite": false,
		"streetview_yaw": 0,
		"location": "BESSBOROUGH SF CONNECT",
		"streetview_lng": null,
		"location_id": "3657"
	},
	{
		"category": "BP",
		"streetview_lat": 51.565148,
		"lng": -0.26427,
		"id": 84269425,
		"lat": 51.56491,
		"streetview_zoom": 0,
		"key_SiteType": "31",
		"streetview_pitch": 6,
		"flag_MotorwaySite": false,
		"streetview_yaw": -137,
		"location": "BLACKBIRD HILL SF CONNECT",
		"streetview_lng": -0.264089,
		"location_id": "3660"
	},
	{
		"category": "BP",
		"streetview_lat": 51.645671,
		"lng": 0.34469,
		"id": 84269440,
		"lat": 51.64536,
		"streetview_zoom": 0,
		"key_SiteType": "21",
		"streetview_pitch": -1,
		"flag_MotorwaySite": false,
		"streetview_yaw": 0,
		"location": "BRENTWOOD SF CONNECT",
		"streetview_lng": 0.344605,
		"location_id": "3697"
	},